{
"type": "FeatureCollection",
"features": [
{ "type": "Feature", "properties": { "Country": "United Arab Emirates", "Function": "1-345---", "LOCODE": "AEAUH", "Name": "Abu Dhabi", "NameWoDiac": "Abu Dhabi", "Status": "AI", "outflows": 41597.142851999997 }, "geometry": { "type": "Point", "coordinates": [ 54.366666666666667, 24.466666666666665 ] } },
{ "type": "Feature", "properties": { "Country": "United Arab Emirates", "Function": "1-------", "LOCODE": "AERUW", "Name": "Ar Ruways", "NameWoDiac": "Ar Ruways", "Status": "RL", "outflows": 166556.0 }, "geometry": { "type": "Point", "coordinates": [ 52.733333333333334, 24.116666666666667 ] } },
{ "type": "Feature", "properties": { "Country": "United Arab Emirates", "Function": "1-------", "LOCODE": "AEKLF", "Name": "Khor al Fakkan", "NameWoDiac": "Khor al Fakkan", "Status": "RL", "outflows": 790406.5 }, "geometry": { "type": "Point", "coordinates": [ 56.35, 25.333333333333332 ] } },
{ "type": "Feature", "properties": { "Country": "United Arab Emirates", "Function": "1-3-----", "LOCODE": "AEMKH", "Name": "Mina Khalid", "NameWoDiac": "Mina Khalid", "Status": "RL", "outflows": 646965.0 }, "geometry": { "type": "Point", "coordinates": [ 55.366666666666667, 25.35 ] } },
{ "type": "Feature", "properties": { "Country": "United Arab Emirates", "Function": "1-------", "LOCODE": "AEKHL", "Name": "Mina Khalifa\/Abu Dhabi", "NameWoDiac": "Mina Khalifa\/Abu Dhabi", "Status": "RL", "outflows": 18341458.820419993 }, "geometry": { "type": "Point", "coordinates": [ 54.666666666666664, 24.833333333333332 ] } },
{ "type": "Feature", "properties": { "Country": "United Arab Emirates", "Function": "1--4----", "LOCODE": "AEQIW", "Name": "Umm al Qaiwain", "NameWoDiac": "Umm al Qaiwain", "Status": "AI", "outflows": 14196.0 }, "geometry": { "type": "Point", "coordinates": [ 55.55, 25.566666666666666 ] } },
{ "type": "Feature", "properties": { "Country": "Antigua and Barbuda", "Function": "1-------", "LOCODE": "AGSJO", "Name": "Saint John's", "NameWoDiac": "Saint John's", "Status": "AI", "outflows": 208663.0 }, "geometry": { "type": "Point", "coordinates": [ -61.85, 17.116666666666667 ] } },
{ "type": "Feature", "properties": { "Country": "American Samoa", "Function": "1--45---", "LOCODE": "ASPPG", "Name": "Pago Pago", "NameWoDiac": "Pago Pago", "Status": "AI", "outflows": 338184.5 }, "geometry": { "type": "Point", "coordinates": [ -170.7, 14.266666666666667 ] } },
{ "type": "Feature", "properties": { "Country": "Bangladesh", "Function": "1--45---", "LOCODE": "BDCGP", "Name": "Chattogram", "NameWoDiac": "Chattogram", "Status": "AI", "outflows": 1379549.0523300001 }, "geometry": { "type": "Point", "coordinates": [ 91.833333333333329, 22.333333333333332 ] } },
{ "type": "Feature", "properties": { "Country": "Bahrain", "Function": "1-------", "LOCODE": "BHMIN", "Name": "Mina Sulman Port", "NameWoDiac": "Mina Sulman Port", "Status": "AA", "outflows": 632118.5 }, "geometry": { "type": "Point", "coordinates": [ 50.616666666666667, 26.2 ] } },
{ "type": "Feature", "properties": { "Country": "Congo, The Democratic Republic of the", "Function": "1-3-----", "LOCODE": "CDBNW", "Name": "Banana", "NameWoDiac": "Banana", "Status": "RL", "outflows": 48681.0 }, "geometry": { "type": "Point", "coordinates": [ 12.401211892732039, -6.003633266930797 ] } },
{ "type": "Feature", "properties": { "Country": "Congo", "Function": "1--45---", "LOCODE": "CGPNR", "Name": "Pointe Noire", "NameWoDiac": "Pointe Noire", "Status": "AI", "outflows": 3473713.5811700015 }, "geometry": { "type": "Point", "coordinates": [ 11.85, -4.8 ] } },
{ "type": "Feature", "properties": { "Country": "Chile", "Function": "1--4----", "LOCODE": "CLANF", "Name": "Antofagasta", "NameWoDiac": "Antofagasta", "Status": "AI", "outflows": 2136460.625 }, "geometry": { "type": "Point", "coordinates": [ -70.38333333333334, -23.633333333333333 ] } },
{ "type": "Feature", "properties": { "Country": "Chile", "Function": "1-34----", "LOCODE": "CLARI", "Name": "Arica", "NameWoDiac": "Arica", "Status": "AI", "outflows": 1400600.825 }, "geometry": { "type": "Point", "coordinates": [ -70.316666666666663, -18.483333333333334 ] } },
{ "type": "Feature", "properties": { "Country": "Chile", "Function": "123-----", "LOCODE": "CLCNL", "Name": "Coronel", "NameWoDiac": "Coronel", "Status": "AI", "outflows": 5437390.8332000002 }, "geometry": { "type": "Point", "coordinates": [ -73.15, -37.016666666666666 ] } },
{ "type": "Feature", "properties": { "Country": "Chile", "Function": "1--4----", "LOCODE": "CLIQQ", "Name": "Iquique", "NameWoDiac": "Iquique", "Status": "AI", "outflows": 1915647.5 }, "geometry": { "type": "Point", "coordinates": [ -70.13333333333334, -20.216666666666665 ] } },
{ "type": "Feature", "properties": { "Country": "Chile", "Function": "123-----", "LOCODE": "CLLQN", "Name": "Lirquén", "NameWoDiac": "Lirquen", "Status": "AI", "outflows": 3185838.4995000004 }, "geometry": { "type": "Point", "coordinates": [ -72.983333333333334, -36.7 ] } },
{ "type": "Feature", "properties": { "Country": "Chile", "Function": "1-------", "LOCODE": "CLMJS", "Name": "Mejillones", "NameWoDiac": "Mejillones", "Status": "AI", "outflows": 32362.2 }, "geometry": { "type": "Point", "coordinates": [ -70.45, -23.1 ] } },
{ "type": "Feature", "properties": { "Country": "Chile", "Function": "123-----", "LOCODE": "CLPAG", "Name": "Puerto Angamos", "NameWoDiac": "Puerto Angamos", "Status": "RL", "outflows": 5408319.3663000017 }, "geometry": { "type": "Point", "coordinates": [ -70.45, -23.083333333333332 ] } },
{ "type": "Feature", "properties": { "Country": "Chile", "Function": "1-34----", "LOCODE": "CLPUQ", "Name": "Punta Arenas", "NameWoDiac": "Punta Arenas", "Status": "AI", "outflows": 18174.0 }, "geometry": { "type": "Point", "coordinates": [ -70.933333333333337, -53.133333333333333 ] } },
{ "type": "Feature", "properties": { "Country": "Chile", "Function": "123-----", "LOCODE": "CLSAI", "Name": "San Antonio", "NameWoDiac": "San Antonio", "Status": "AI", "outflows": 9417069.025 }, "geometry": { "type": "Point", "coordinates": [ -71.6, -33.6 ] } },
{ "type": "Feature", "properties": { "Country": "Chile", "Function": "1-3-----", "LOCODE": "CLSVE", "Name": "San Vicente", "NameWoDiac": "San Vicente", "Status": "AI", "outflows": 945075.625 }, "geometry": { "type": "Point", "coordinates": [ -73.13333333333334, -36.7 ] } },
{ "type": "Feature", "properties": { "Country": "Chile", "Function": "1234----", "LOCODE": "CLVAP", "Name": "Valparaiso", "NameWoDiac": "Valparaiso", "Status": "AI", "outflows": 2059925.0 }, "geometry": { "type": "Point", "coordinates": [ -71.63333333333334, -33.033333333333331 ] } },
{ "type": "Feature", "properties": { "Country": "China", "Function": "1-------", "LOCODE": "CNCFD", "Name": "Caofeidian Pt", "NameWoDiac": "Caofeidian Pt", "Status": "AS", "outflows": 168350.0 }, "geometry": { "type": "Point", "coordinates": [ 118.533333333333331, 38.95 ] } },
{ "type": "Feature", "properties": { "Country": "China", "Function": "1----6--", "LOCODE": "CNDCB", "Name": "DA CHAN BAY", "NameWoDiac": "DA CHAN BAY", "Status": "RL", "outflows": 4367401.0713399984 }, "geometry": { "type": "Point", "coordinates": [ 113.86666666666666, 22.533333333333335 ] } },
{ "type": "Feature", "properties": { "Country": "China", "Function": "1-------", "LOCODE": "CNDGG", "Name": "Dongguan Pt", "NameWoDiac": "Dongguan Pt", "Status": "AS", "outflows": 94354.0 }, "geometry": { "type": "Point", "coordinates": [ 113.75, 23.033333333333335 ] } },
{ "type": "Feature", "properties": { "Country": "China", "Function": "1-------", "LOCODE": "CNDJK", "Name": "Dongjiangkou", "NameWoDiac": "Dongjiangkou", "Status": "AS", "outflows": 386750.0 }, "geometry": { "type": "Point", "coordinates": [ 119.52253982618285, 35.308885331582253 ] } },
{ "type": "Feature", "properties": { "Country": "China", "Function": "--3-----", "LOCODE": "CNFQG", "Name": "Fuqing", "NameWoDiac": "Fuqing", "Status": "RL", "outflows": 1164780.9333599997 }, "geometry": { "type": "Point", "coordinates": [ 119.36666666666666, 25.716666666666665 ] } },
{ "type": "Feature", "properties": { "Country": "China", "Function": "1-------", "LOCODE": "CNHUI", "Name": "Huizhou Pt", "NameWoDiac": "Huizhou Pt", "Status": "AS", "outflows": 27300.0 }, "geometry": { "type": "Point", "coordinates": [ 114.36666666666666, 23.083333333333332 ] } },
{ "type": "Feature", "properties": { "Country": "China", "Function": "1-------", "LOCODE": "CNHMN", "Name": "Humen Pt", "NameWoDiac": "Humen Pt", "Status": "AS", "outflows": 630027.5 }, "geometry": { "type": "Point", "coordinates": [ 113.666666666666671, 22.833333333333332 ] } },
{ "type": "Feature", "properties": { "Country": "China", "Function": "1-3-----", "LOCODE": "CNJGY", "Name": "Jiangyin", "NameWoDiac": "Jiangyin", "Status": "RL", "outflows": 594906.0 }, "geometry": { "type": "Point", "coordinates": [ 119.3, 25.466666666666665 ] } },
{ "type": "Feature", "properties": { "Country": "China", "Function": "1-------", "LOCODE": "CNJNZ", "Name": "Jinzhou Pt", "NameWoDiac": "Jinzhou Pt", "Status": "AS", "outflows": 684866.0 }, "geometry": { "type": "Point", "coordinates": [ 121.15, 41.116666666666667 ] } },
{ "type": "Feature", "properties": { "Country": "China", "Function": "1-------", "LOCODE": "CNLYG", "Name": "Lianyungang", "NameWoDiac": "Lianyungang", "Status": "AS", "outflows": 9288988.8094500005 }, "geometry": { "type": "Point", "coordinates": [ 119.433333333333337, 34.716666666666669 ] } },
{ "type": "Feature", "properties": { "Country": "China", "Function": "1-------", "LOCODE": "CNNSA", "Name": "Nansha Pt", "NameWoDiac": "Nansha Pt", "Status": "AS", "outflows": 42484636.038412996 }, "geometry": { "type": "Point", "coordinates": [ 113.583333333333329, 22.75 ] } },
{ "type": "Feature", "properties": { "Country": "China", "Function": "1-------", "LOCODE": "CNNTG", "Name": "Nantong Pt", "NameWoDiac": "Nantong Pt", "Status": "AS", "outflows": 261618.5 }, "geometry": { "type": "Point", "coordinates": [ 120.85, 32.016666666666666 ] } },
{ "type": "Feature", "properties": { "Country": "China", "Function": "1-------", "LOCODE": "CNSHP", "Name": "Qinhuangdao Pt", "NameWoDiac": "Qinhuangdao Pt", "Status": "AS", "outflows": 105300.0 }, "geometry": { "type": "Point", "coordinates": [ 119.583333333333329, 39.916666666666664 ] } },
{ "type": "Feature", "properties": { "Country": "China", "Function": "1-------", "LOCODE": "CNQZJ", "Name": "Quanzhou Pt", "NameWoDiac": "Quanzhou Pt", "Status": "AS", "outflows": 512451.33335000003 }, "geometry": { "type": "Point", "coordinates": [ 118.6, 24.933333333333334 ] } },
{ "type": "Feature", "properties": { "Country": "China", "Function": "1-------", "LOCODE": "CNRZH", "Name": "Rizhao Pt", "NameWoDiac": "Rizhao Pt", "Status": "AS", "outflows": 1075073.00003 }, "geometry": { "type": "Point", "coordinates": [ 119.533333333333331, 35.383333333333333 ] } },
{ "type": "Feature", "properties": { "Country": "China", "Function": "1-------", "LOCODE": "CNSHK", "Name": "Shekou Pt", "NameWoDiac": "Shekou Pt", "Status": "AS", "outflows": 74635666.140550002 }, "geometry": { "type": "Point", "coordinates": [ 113.916666666666671, 22.483333333333334 ] } },
{ "type": "Feature", "properties": { "Country": "China", "Function": "1-------", "LOCODE": "CNSHD", "Name": "Shidao Pt", "NameWoDiac": "Shidao Pt", "Status": "AS", "outflows": 54886.0 }, "geometry": { "type": "Point", "coordinates": [ 122.433333333333337, 36.866666666666667 ] } },
{ "type": "Feature", "properties": { "Country": "China", "Function": "1-------", "LOCODE": "CNWIH", "Name": "Waihai", "NameWoDiac": "Waihai", "Status": "AS", "outflows": 50050.0 }, "geometry": { "type": "Point", "coordinates": [ 113.13333333333334, 22.583333333333332 ] } },
{ "type": "Feature", "properties": { "Country": "China", "Function": "1--4----", "LOCODE": "CNWEF", "Name": "Weifang Pt", "NameWoDiac": "Weifang Pt", "Status": "AS", "outflows": 65923.0 }, "geometry": { "type": "Point", "coordinates": [ 119.1, 36.716666666666669 ] } },
{ "type": "Feature", "properties": { "Country": "China", "Function": "1--45---", "LOCODE": "CNWEI", "Name": "Weihai", "NameWoDiac": "Weihai", "Status": "AS", "outflows": 238257.5 }, "geometry": { "type": "Point", "coordinates": [ 122.11666666666666, 37.516666666666666 ] } },
{ "type": "Feature", "properties": { "Country": "China", "Function": "1-------", "LOCODE": "CNYPG", "Name": "Yangpu Pt", "NameWoDiac": "Yangpu Pt", "Status": "AS", "outflows": 872543.16658000019 }, "geometry": { "type": "Point", "coordinates": [ 109.2, 19.7 ] } },
{ "type": "Feature", "properties": { "Country": "China", "Function": "1-------", "LOCODE": "CNYTN", "Name": "Yantian Pt", "NameWoDiac": "Yantian Pt", "Status": "AS", "outflows": 74187678.537459999 }, "geometry": { "type": "Point", "coordinates": [ 119.86666666666666, 26.85 ] } },
{ "type": "Feature", "properties": { "Country": "China", "Function": "1-------", "LOCODE": "CNYIK", "Name": "Yingkou Pt", "NameWoDiac": "Yingkou Pt", "Status": "AS", "outflows": 1421671.0 }, "geometry": { "type": "Point", "coordinates": [ 122.216666666666669, 40.65 ] } },
{ "type": "Feature", "properties": { "Country": "China", "Function": "1-------", "LOCODE": "CNZJG", "Name": "Zhangjiagang", "NameWoDiac": "Zhangjiagang", "Status": "AS", "outflows": 196865.5 }, "geometry": { "type": "Point", "coordinates": [ 120.533333333333331, 31.866666666666667 ] } },
{ "type": "Feature", "properties": { "Country": "China", "Function": "1-------", "LOCODE": "CNZZU", "Name": "Zhangzhou Pt", "NameWoDiac": "Zhangzhou Pt", "Status": "AS", "outflows": 340964.0 }, "geometry": { "type": "Point", "coordinates": [ 117.65, 24.516666666666666 ] } },
{ "type": "Feature", "properties": { "Country": "China", "Function": "1-------", "LOCODE": "CNZUH", "Name": "Zhuhai Pt", "NameWoDiac": "Zhuhai Pt", "Status": "AS", "outflows": 929467.5 }, "geometry": { "type": "Point", "coordinates": [ 113.566666666666663, 22.283333333333335 ] } },
{ "type": "Feature", "properties": { "Country": "Costa Rica", "Function": "123-----", "LOCODE": "CRCAL", "Name": "Caldera", "NameWoDiac": "Caldera", "Status": "RL", "outflows": 704191.8 }, "geometry": { "type": "Point", "coordinates": [ -84.716666666666669, 9.95 ] } },
{ "type": "Feature", "properties": { "Country": "Costa Rica", "Function": "1-3-----", "LOCODE": "CRMOB", "Name": "Moín", "NameWoDiac": "Moin", "Status": "RL", "outflows": 2884497.4165249998 }, "geometry": { "type": "Point", "coordinates": [ -83.083333333333329, 10.0 ] } },
{ "type": "Feature", "properties": { "Country": "Costa Rica", "Function": "1-3-----", "LOCODE": "CRLIO", "Name": "Puerto Limón", "NameWoDiac": "Puerto Limon", "Status": "AI", "outflows": 2372283.3334299996 }, "geometry": { "type": "Point", "coordinates": [ -83.033333333333331, 10.0 ] } },
{ "type": "Feature", "properties": { "Country": "Cuba", "Function": "1234----", "LOCODE": "CUMAR", "Name": "Mariel", "NameWoDiac": "Mariel", "Status": "RL", "outflows": 370296.8 }, "geometry": { "type": "Point", "coordinates": [ -82.75, 23.0 ] } },
{ "type": "Feature", "properties": { "Country": "Cabo Verde", "Function": "1-3-----", "LOCODE": "CVMIN", "Name": "Mindelo", "NameWoDiac": "Mindelo", "Status": "RL", "outflows": 114309.0 }, "geometry": { "type": "Point", "coordinates": [ -25.0, 16.883333333333333 ] } },
{ "type": "Feature", "properties": { "Country": "Cyprus", "Function": "1-3-5---", "LOCODE": "CYLMS", "Name": "Limassol", "NameWoDiac": "Limassol", "Status": "AA", "outflows": 2366252.75 }, "geometry": { "type": "Point", "coordinates": [ 33.05, 34.68333333333333 ] } },
{ "type": "Feature", "properties": { "Country": "Dominican Republic", "Function": "1-3--6--", "LOCODE": "DOCAU", "Name": "Caucedo", "NameWoDiac": "Caucedo", "Status": "RL", "outflows": 11771542.79576 }, "geometry": { "type": "Point", "coordinates": [ -69.63333333333334, 18.416666666666668 ] } },
{ "type": "Feature", "properties": { "Country": "Dominican Republic", "Function": "123-----", "LOCODE": "DOMAN", "Name": "Manzanillo", "NameWoDiac": "Manzanillo", "Status": "RL", "outflows": 53258.4 }, "geometry": { "type": "Point", "coordinates": [ -71.75, 19.7 ] } },
{ "type": "Feature", "properties": { "Country": "Algeria", "Function": "123456--", "LOCODE": "DZALG", "Name": "Alger (Algiers)", "NameWoDiac": "Alger (Algiers)", "Status": "AI", "outflows": 835952.4 }, "geometry": { "type": "Point", "coordinates": [ 3.05, 36.75 ] } },
{ "type": "Feature", "properties": { "Country": "Algeria", "Function": "123-----", "LOCODE": "DZAZW", "Name": "Arzew", "NameWoDiac": "Arzew", "Status": "RL", "outflows": 24660.0 }, "geometry": { "type": "Point", "coordinates": [ -0.316666666666667, 35.866666666666667 ] } },
{ "type": "Feature", "properties": { "Country": "Algeria", "Function": "123-----", "LOCODE": "DZGHZ", "Name": "Ghazaouet", "NameWoDiac": "Ghazaouet", "Status": "RL", "outflows": 72735.0 }, "geometry": { "type": "Point", "coordinates": [ -1.85, 35.1 ] } },
{ "type": "Feature", "properties": { "Country": "Ecuador", "Function": "1--4----", "LOCODE": "ECESM", "Name": "Esmeraldas", "NameWoDiac": "Esmeraldas", "Status": "AI", "outflows": 153990.2 }, "geometry": { "type": "Point", "coordinates": [ -79.7, 0.983333333333333 ] } },
{ "type": "Feature", "properties": { "Country": "Ecuador", "Function": "1--45---", "LOCODE": "ECGYE", "Name": "Guayaquil", "NameWoDiac": "Guayaquil", "Status": "AI", "outflows": 8368052.2252000012 }, "geometry": { "type": "Point", "coordinates": [ -79.9, -2.166666666666667 ] } },
{ "type": "Feature", "properties": { "Country": "Ecuador", "Function": "--3--6--", "LOCODE": "ECPSJ", "Name": "Posorja", "NameWoDiac": "Posorja", "Status": "RL", "outflows": 1776250.6667999995 }, "geometry": { "type": "Point", "coordinates": [ -80.25, -2.7 ] } },
{ "type": "Feature", "properties": { "Country": "Ecuador", "Function": "1-------", "LOCODE": "ECPBO", "Name": "Puerto Bolívar", "NameWoDiac": "Puerto Bolivar", "Status": "AI", "outflows": 1601516.8 }, "geometry": { "type": "Point", "coordinates": [ -79.983333333333334, -3.266666666666667 ] } },
{ "type": "Feature", "properties": { "Country": "Estonia", "Function": "1------B", "LOCODE": "EEKND", "Name": "Kunda", "NameWoDiac": "Kunda", "Status": "AA", "outflows": 4176.0 }, "geometry": { "type": "Point", "coordinates": [ 26.533333333333335, 59.516666666666666 ] } },
{ "type": "Feature", "properties": { "Country": "Estonia", "Function": "1------B", "LOCODE": "EEMUG", "Name": "Muuga", "NameWoDiac": "Muuga", "Status": "AA", "outflows": 74880.0 }, "geometry": { "type": "Point", "coordinates": [ 24.966666666666665, 59.5 ] } },
{ "type": "Feature", "properties": { "Country": "Estonia", "Function": "-23----B", "LOCODE": "EEPLA", "Name": "Paldiski", "NameWoDiac": "Paldiski", "Status": "AA", "outflows": 90009.0 }, "geometry": { "type": "Point", "coordinates": [ 24.05, 59.35 ] } },
{ "type": "Feature", "properties": { "Country": "Estonia", "Function": "1--45---", "LOCODE": "EETLL", "Name": "Tallinn", "NameWoDiac": "Tallinn", "Status": "AI", "outflows": 493596.99998000002 }, "geometry": { "type": "Point", "coordinates": [ 24.733333333333334, 59.43333333333333 ] } },
{ "type": "Feature", "properties": { "Country": "Egypt", "Function": "1234----", "LOCODE": "EGDAM", "Name": "Dumyat (Damietta)", "NameWoDiac": "Dumyat (Damietta)", "Status": "RL", "outflows": 9993066.850010002 }, "geometry": { "type": "Point", "coordinates": [ 31.816666666666666, 31.416666666666668 ] } },
{ "type": "Feature", "properties": { "Country": "Egypt", "Function": "1--45---", "LOCODE": "EGALY", "Name": "El Iskandariya (Alexandria)", "NameWoDiac": "El Iskandariya (Alexandria)", "Status": "AI", "outflows": 6389301.2997899996 }, "geometry": { "type": "Point", "coordinates": [ 29.916666666666668, 31.183333333333334 ] } },
{ "type": "Feature", "properties": { "Country": "Egypt", "Function": "1-------", "LOCODE": "EGSOK", "Name": "Sokhna Port", "NameWoDiac": "Sokhna Port", "Status": "RQ", "outflows": 3639356.7318400005 }, "geometry": { "type": "Point", "coordinates": [ 32.35, 29.65 ] } },
{ "type": "Feature", "properties": { "Country": "Fiji", "Function": "123-----", "LOCODE": "FJLTK", "Name": "Lautoka", "NameWoDiac": "Lautoka", "Status": "RL", "outflows": 490393.0 }, "geometry": { "type": "Point", "coordinates": [ 177.45, -17.616666666666667 ] } },
{ "type": "Feature", "properties": { "Country": "Fiji", "Function": "1--45---", "LOCODE": "FJSUV", "Name": "Suva", "NameWoDiac": "Suva", "Status": "AI", "outflows": 535295.0 }, "geometry": { "type": "Point", "coordinates": [ 178.45, -18.133333333333333 ] } },
{ "type": "Feature", "properties": { "Country": "Greece", "Function": "1--4----", "LOCODE": "GRHER", "Name": "Heraklion (Iraklion)", "NameWoDiac": "Heraklion (Iraklion)", "Status": "AI", "outflows": 23582.0 }, "geometry": { "type": "Point", "coordinates": [ 25.166666666666668, 35.333333333333336 ] } },
{ "type": "Feature", "properties": { "Country": "Greece", "Function": "1--4----", "LOCODE": "GRHER", "Name": "Iraklion (Heraklion)", "NameWoDiac": "Iraklion (Heraklion)", "Status": "AI", "outflows": 23582.0 }, "geometry": { "type": "Point", "coordinates": [ 25.166666666666668, 35.333333333333336 ] } },
{ "type": "Feature", "properties": { "Country": "Greece", "Function": "1-------", "LOCODE": "GRPIR", "Name": "Piraeus", "NameWoDiac": "Piraeus", "Status": "AI", "outflows": 25227137.508840002 }, "geometry": { "type": "Point", "coordinates": [ 23.616666666666667, 37.93333333333333 ] } },
{ "type": "Feature", "properties": { "Country": "Greece", "Function": "1--45---", "LOCODE": "GRSKG", "Name": "Thessaloníki", "NameWoDiac": "Thessaloniki", "Status": "AI", "outflows": 790815.99999000016 }, "geometry": { "type": "Point", "coordinates": [ 22.95, 40.633333333333333 ] } },
{ "type": "Feature", "properties": { "Country": "Greece", "Function": "1--4----", "LOCODE": "GRVOL", "Name": "Vólos", "NameWoDiac": "Volos", "Status": "AI", "outflows": 23582.0 }, "geometry": { "type": "Point", "coordinates": [ 22.95, 39.366666666666667 ] } },
{ "type": "Feature", "properties": { "Country": "Guinea-Bissau", "Function": "1-345---", "LOCODE": "GWOXB", "Name": "Bissau", "NameWoDiac": "Bissau", "Status": "AI", "outflows": 114309.0 }, "geometry": { "type": "Point", "coordinates": [ -15.583333333333334, 11.85 ] } },
{ "type": "Feature", "properties": { "Country": "Croatia", "Function": "123-----", "LOCODE": "HRPLE", "Name": "Ploce", "NameWoDiac": "Ploce", "Status": "RL", "outflows": 136773.0 }, "geometry": { "type": "Point", "coordinates": [ 17.433333333333334, 43.05 ] } },
{ "type": "Feature", "properties": { "Country": "Croatia", "Function": "1234----", "LOCODE": "HRRJK", "Name": "Rijeka", "NameWoDiac": "Rijeka", "Status": "AI", "outflows": 3818455.3333799997 }, "geometry": { "type": "Point", "coordinates": [ 14.4, 45.333333333333336 ] } },
{ "type": "Feature", "properties": { "Country": "Croatia", "Function": "1234----", "LOCODE": "HRSPU", "Name": "Split", "NameWoDiac": "Split", "Status": "AI", "outflows": 63609.0 }, "geometry": { "type": "Point", "coordinates": [ 16.45, 43.5 ] } },
{ "type": "Feature", "properties": { "Country": "Indonesia", "Function": "1--4----", "LOCODE": "IDBPN", "Name": "Balikpapan", "NameWoDiac": "Balikpapan", "Status": "AI", "outflows": 77320.75 }, "geometry": { "type": "Point", "coordinates": [ 116.833333333333329, -1.283333333333333 ] } },
{ "type": "Feature", "properties": { "Country": "Indonesia", "Function": "1-3-----", "LOCODE": "IDBTM", "Name": "Batam Island", "NameWoDiac": "Batam Island", "Status": "RL", "outflows": 7335.5 }, "geometry": { "type": "Point", "coordinates": [ 104.033333333333331, 1.083333333333333 ] } },
{ "type": "Feature", "properties": { "Country": "Indonesia", "Function": "1-------", "LOCODE": "IDBEN", "Name": "Benete", "NameWoDiac": "Benete", "Status": "RL", "outflows": 12681.75 }, "geometry": { "type": "Point", "coordinates": [ 116.716666666666669, -8.866666666666667 ] } },
{ "type": "Feature", "properties": { "Country": "Indonesia", "Function": "1-------", "LOCODE": "IDBOA", "Name": "Benoa", "NameWoDiac": "Benoa", "Status": "RL", "outflows": 6747.0 }, "geometry": { "type": "Point", "coordinates": [ 115.216666666666669, -8.766666666666667 ] } },
{ "type": "Feature", "properties": { "Country": "Indonesia", "Function": "12345---", "LOCODE": "IDJKT", "Name": "Jakarta, Java", "NameWoDiac": "Jakarta, Java", "Status": "AI", "outflows": 12060454.992969999 }, "geometry": { "type": "Point", "coordinates": [ 106.833333333333329, -6.133333333333334 ] } },
{ "type": "Feature", "properties": { "Country": "Indonesia", "Function": "1-345---", "LOCODE": "IDDJJ", "Name": "Jayapura, Irian Jaya", "NameWoDiac": "Jayapura, Irian Jaya", "Status": "AI", "outflows": 136162.0 }, "geometry": { "type": "Point", "coordinates": [ 140.7, -2.533333333333333 ] } },
{ "type": "Feature", "properties": { "Country": "Indonesia", "Function": "1-3-----", "LOCODE": "IDKUM", "Name": "Kumai", "NameWoDiac": "Kumai", "Status": "RL", "outflows": 4238.0 }, "geometry": { "type": "Point", "coordinates": [ 111.716666666666669, -2.733333333333333 ] } },
{ "type": "Feature", "properties": { "Country": "Indonesia", "Function": "1-3-----", "LOCODE": "IDMAK", "Name": "Makassar", "NameWoDiac": "Makassar", "Status": "RL", "outflows": 664450.0 }, "geometry": { "type": "Point", "coordinates": [ 119.4, -5.116666666666666 ] } },
{ "type": "Feature", "properties": { "Country": "Indonesia", "Function": "1234----", "LOCODE": "IDPDG", "Name": "Padang", "NameWoDiac": "Padang", "Status": "AI", "outflows": 74470.25 }, "geometry": { "type": "Point", "coordinates": [ 100.35, -0.95 ] } },
{ "type": "Feature", "properties": { "Country": "Indonesia", "Function": "1-3-----", "LOCODE": "IDPER", "Name": "Perawang", "NameWoDiac": "Perawang", "Status": "RL", "outflows": 3627.0 }, "geometry": { "type": "Point", "coordinates": [ 102.86666666666666, 1.066666666666667 ] } },
{ "type": "Feature", "properties": { "Country": "Indonesia", "Function": "1-345---", "LOCODE": "IDSRG", "Name": "Semarang", "NameWoDiac": "Semarang", "Status": "AI", "outflows": 2529727.4165999996 }, "geometry": { "type": "Point", "coordinates": [ 110.483333333333334, -6.966666666666667 ] } },
{ "type": "Feature", "properties": { "Country": "Indonesia", "Function": "123456--", "LOCODE": "IDSUB", "Name": "Surabaya", "NameWoDiac": "Surabaya", "Status": "AI", "outflows": 5004081.1427500024 }, "geometry": { "type": "Point", "coordinates": [ 112.75, -7.233333333333333 ] } },
{ "type": "Feature", "properties": { "Country": "Indonesia", "Function": "1--4----", "LOCODE": "IDTNJ", "Name": "Tanjungpinang", "NameWoDiac": "Tanjungpinang", "Status": "AI", "outflows": 3068.0 }, "geometry": { "type": "Point", "coordinates": [ 104.45, 0.916666666666667 ] } },
{ "type": "Feature", "properties": { "Country": "Indonesia", "Function": "1-------", "LOCODE": "IDTMK", "Name": "Timika", "NameWoDiac": "Timika", "Status": "RQ", "outflows": 3240.0 }, "geometry": { "type": "Point", "coordinates": [ 136.55, -4.75 ] } },
{ "type": "Feature", "properties": { "Country": "Indonesia", "Function": "1-------", "LOCODE": "IDTUA", "Name": "Tual", "NameWoDiac": "Tual", "Status": "RQ", "outflows": 12207.0 }, "geometry": { "type": "Point", "coordinates": [ 132.73333333333332, -5.633333333333333 ] } },
{ "type": "Feature", "properties": { "Country": "Iraq", "Function": "123-----", "LOCODE": "IQUQR", "Name": "Umm Qasr Port", "NameWoDiac": "Umm Qasr Port", "Status": "RL", "outflows": 3640547.5715799998 }, "geometry": { "type": "Point", "coordinates": [ 47.93333333333333, 30.033333333333335 ] } },
{ "type": "Feature", "properties": { "Country": "Iran, Islamic Republic of", "Function": "1-3-----", "LOCODE": "IRASA", "Name": "Asaluyeh", "NameWoDiac": "Asaluyeh", "Status": "RL", "outflows": 3060.0 }, "geometry": { "type": "Point", "coordinates": [ 52.6, 27.466666666666665 ] } },
{ "type": "Feature", "properties": { "Country": "Iran, Islamic Republic of", "Function": "1--4----", "LOCODE": "IRBND", "Name": "Bandar Abbas", "NameWoDiac": "Bandar Abbas", "Status": "AI", "outflows": 1154182.75 }, "geometry": { "type": "Point", "coordinates": [ 56.266666666666666, 27.183333333333334 ] } },
{ "type": "Feature", "properties": { "Country": "Iran, Islamic Republic of", "Function": "1-34----", "LOCODE": "IRBKM", "Name": "Bandar Khomeini", "NameWoDiac": "Bandar Khomeini", "Status": "RL", "outflows": 85644.0 }, "geometry": { "type": "Point", "coordinates": [ 49.1, 30.433333333333334 ] } },
{ "type": "Feature", "properties": { "Country": "Iran, Islamic Republic of", "Function": "1-34----", "LOCODE": "IRBUZ", "Name": "Bushehr", "NameWoDiac": "Bushehr", "Status": "AI", "outflows": 85644.0 }, "geometry": { "type": "Point", "coordinates": [ 50.833333333333336, 28.966666666666665 ] } },
{ "type": "Feature", "properties": { "Country": "Italy", "Function": "1-34----", "LOCODE": "ITAOI", "Name": "Ancona", "NameWoDiac": "Ancona", "Status": "AI", "outflows": 1251219.6666600001 }, "geometry": { "type": "Point", "coordinates": [ 13.5, 43.633333333333333 ] } },
{ "type": "Feature", "properties": { "Country": "Italy", "Function": "1-34----", "LOCODE": "ITBRI", "Name": "Bari", "NameWoDiac": "Bari", "Status": "AI", "outflows": 123851.0 }, "geometry": { "type": "Point", "coordinates": [ 16.85, 41.133333333333333 ] } },
{ "type": "Feature", "properties": { "Country": "Italy", "Function": "1-34----", "LOCODE": "ITCAG", "Name": "Cagliari", "NameWoDiac": "Cagliari", "Status": "AI", "outflows": 61347.0 }, "geometry": { "type": "Point", "coordinates": [ 9.116666666666667, 39.216666666666669 ] } },
{ "type": "Feature", "properties": { "Country": "Italy", "Function": "1-------", "LOCODE": "ITCTA", "Name": "Catania", "NameWoDiac": "Catania", "Status": "AI", "outflows": 112515.0 }, "geometry": { "type": "Point", "coordinates": [ 15.1, 37.5 ] } },
{ "type": "Feature", "properties": { "Country": "Italy", "Function": "1-------", "LOCODE": "ITCVV", "Name": "Civitavecchia", "NameWoDiac": "Civitavecchia", "Status": "AI", "outflows": 2179445.6662 }, "geometry": { "type": "Point", "coordinates": [ 11.8, 42.1 ] } },
{ "type": "Feature", "properties": { "Country": "Italy", "Function": "12345---", "LOCODE": "ITGOA", "Name": "Genova", "NameWoDiac": "Genova", "Status": "AI", "outflows": 23896971.132049996 }, "geometry": { "type": "Point", "coordinates": [ 8.95, 44.416666666666664 ] } },
{ "type": "Feature", "properties": { "Country": "Italy", "Function": "1-------", "LOCODE": "ITGIT", "Name": "Gioia Tauro", "NameWoDiac": "Gioia Tauro", "Status": "AI", "outflows": 16628557.647730002 }, "geometry": { "type": "Point", "coordinates": [ 15.9, 38.416666666666664 ] } },
{ "type": "Feature", "properties": { "Country": "Italy", "Function": "1-------", "LOCODE": "ITSPE", "Name": "La Spezia", "NameWoDiac": "La Spezia", "Status": "AI", "outflows": 12785874.433700003 }, "geometry": { "type": "Point", "coordinates": [ 9.833333333333334, 44.116666666666667 ] } },
{ "type": "Feature", "properties": { "Country": "Italy", "Function": "1-------", "LOCODE": "ITLIV", "Name": "Livorno", "NameWoDiac": "Livorno", "Status": "AI", "outflows": 8253720.2853500005 }, "geometry": { "type": "Point", "coordinates": [ 10.316666666666666, 43.55 ] } },
{ "type": "Feature", "properties": { "Country": "Italy", "Function": "1234----", "LOCODE": "ITNAP", "Name": "Napoli", "NameWoDiac": "Napoli", "Status": "AI", "outflows": 4010591.4281000006 }, "geometry": { "type": "Point", "coordinates": [ 14.25, 40.833333333333336 ] } },
{ "type": "Feature", "properties": { "Country": "Italy", "Function": "1234----", "LOCODE": "ITOLB", "Name": "Olbia", "NameWoDiac": "Olbia", "Status": "RL", "outflows": 11076.0 }, "geometry": { "type": "Point", "coordinates": [ 9.516666666666667, 40.916666666666664 ] } },
{ "type": "Feature", "properties": { "Country": "Italy", "Function": "1--4----", "LOCODE": "ITPMO", "Name": "Palermo", "NameWoDiac": "Palermo", "Status": "AI", "outflows": 35997.0 }, "geometry": { "type": "Point", "coordinates": [ 13.366666666666667, 38.116666666666667 ] } },
{ "type": "Feature", "properties": { "Country": "Italy", "Function": "123-----", "LOCODE": "ITSVN", "Name": "Savona", "NameWoDiac": "Savona", "Status": "AI", "outflows": 43661.0 }, "geometry": { "type": "Point", "coordinates": [ 8.5, 44.283333333333331 ] } },
{ "type": "Feature", "properties": { "Country": "Italy", "Function": "1--4----", "LOCODE": "ITTPS", "Name": "Trapani", "NameWoDiac": "Trapani", "Status": "AI", "outflows": 41808.0 }, "geometry": { "type": "Point", "coordinates": [ 12.483333333333333, 38.016666666666666 ] } },
{ "type": "Feature", "properties": { "Country": "Italy", "Function": "123-----", "LOCODE": "ITVDL", "Name": "Vado Ligure", "NameWoDiac": "Vado Ligure", "Status": "RL", "outflows": 1281768.42842 }, "geometry": { "type": "Point", "coordinates": [ 8.45, 44.266666666666666 ] } },
{ "type": "Feature", "properties": { "Country": "Italy", "Function": "12345--B", "LOCODE": "ITVCE", "Name": "Venezia", "NameWoDiac": "Venezia", "Status": "AI", "outflows": 1408195.6666600001 }, "geometry": { "type": "Point", "coordinates": [ 12.333333333333334, 45.43333333333333 ] } },
{ "type": "Feature", "properties": { "Country": "Cambodia", "Function": "1-34--7-", "LOCODE": "KHKOS", "Name": "Kâmpóng Saôm", "NameWoDiac": "Kampong Saom", "Status": "AI", "outflows": 1342444.99985 }, "geometry": { "type": "Point", "coordinates": [ 103.516666666666666, 10.6 ] } },
{ "type": "Feature", "properties": { "Country": "Comoros", "Function": "1-3-----", "LOCODE": "KMMUT", "Name": "Mutsamudu, Anjouan", "NameWoDiac": "Mutsamudu, Anjouan", "Status": "RL", "outflows": 143131.33335 }, "geometry": { "type": "Point", "coordinates": [ 44.383333333333333, -12.15 ] } },
{ "type": "Feature", "properties": { "Country": "Kuwait", "Function": "1-3--6--", "LOCODE": "KWSAA", "Name": "Shuaiba", "NameWoDiac": "Shuaiba", "Status": "RL", "outflows": 770515.0 }, "geometry": { "type": "Point", "coordinates": [ 48.133333333333333, 29.033333333333335 ] } },
{ "type": "Feature", "properties": { "Country": "Kuwait", "Function": "1-------", "LOCODE": "KWSWK", "Name": "Shuwaikh", "NameWoDiac": "Shuwaikh", "Status": "RL", "outflows": 272129.0 }, "geometry": { "type": "Point", "coordinates": [ 47.93333333333333, 29.35 ] } },
{ "type": "Feature", "properties": { "Country": "Lebanon", "Function": "1--45---", "LOCODE": "LBBEY", "Name": "Beirut", "NameWoDiac": "Beirut", "Status": "AI", "outflows": 8332419.5043999981 }, "geometry": { "type": "Point", "coordinates": [ 35.483333333333334, 33.833333333333336 ] } },
{ "type": "Feature", "properties": { "Country": "Sri Lanka", "Function": "12345---", "LOCODE": "LKCMB", "Name": "Colombo", "NameWoDiac": "Colombo", "Status": "AI", "outflows": 40970827.24107001 }, "geometry": { "type": "Point", "coordinates": [ 79.85, 6.916666666666667 ] } },
{ "type": "Feature", "properties": { "Country": "Liberia", "Function": "1-345---", "LOCODE": "LRMLW", "Name": "Monrovia", "NameWoDiac": "Monrovia", "Status": "AI", "outflows": 467272.00002000009 }, "geometry": { "type": "Point", "coordinates": [ -10.8, 6.3 ] } },
{ "type": "Feature", "properties": { "Country": "Libya", "Function": "1-3-----", "LOCODE": "LYKHO", "Name": "Al Khums", "NameWoDiac": "Al Khums", "Status": "RL", "outflows": 230254.00001 }, "geometry": { "type": "Point", "coordinates": [ 14.266666666666667, 32.65 ] } },
{ "type": "Feature", "properties": { "Country": "Moldova, Republic of", "Function": "1-3-----", "LOCODE": "MDGIU", "Name": "Giurgiulesti", "NameWoDiac": "Giurgiulesti", "Status": "RL", "outflows": 1560.0 }, "geometry": { "type": "Point", "coordinates": [ 28.183333333333334, 45.466666666666669 ] } },
{ "type": "Feature", "properties": { "Country": "Montenegro", "Function": "123-----", "LOCODE": "MEBAR", "Name": "Bar", "NameWoDiac": "Bar", "Status": "RL", "outflows": 257803.0 }, "geometry": { "type": "Point", "coordinates": [ 19.083333333333332, 42.083333333333336 ] } },
{ "type": "Feature", "properties": { "Country": "Madagascar", "Function": "1-------", "LOCODE": "MGEHL", "Name": "Ehoala", "NameWoDiac": "Ehoala", "Status": "RL", "outflows": 19864.0 }, "geometry": { "type": "Point", "coordinates": [ 46.95, -25.066666666666666 ] } },
{ "type": "Feature", "properties": { "Country": "Madagascar", "Function": "1-34----", "LOCODE": "MGNOS", "Name": "Nosy-Be", "NameWoDiac": "Nosy-Be", "Status": "AI", "outflows": 60888.0 }, "geometry": { "type": "Point", "coordinates": [ 48.25, -13.333333333333334 ] } },
{ "type": "Feature", "properties": { "Country": "Myanmar", "Function": "123-----", "LOCODE": "MMTLA", "Name": "Thilawa", "NameWoDiac": "Thilawa", "Status": "RL", "outflows": 629785.00001999992 }, "geometry": { "type": "Point", "coordinates": [ 96.25, 16.65 ] } },
{ "type": "Feature", "properties": { "Country": "Myanmar", "Function": "123-----", "LOCODE": "MMTLA", "Name": "Thilawa", "NameWoDiac": "Thilawa", "Status": "RL", "outflows": 629785.00001999992 }, "geometry": { "type": "Point", "coordinates": [ 96.25, 16.65 ] } },
{ "type": "Feature", "properties": { "Country": "Malta", "Function": "1-------", "LOCODE": "MTMAR", "Name": "Marsaxlokk", "NameWoDiac": "Marsaxlokk", "Status": "AA", "outflows": 12264680.76361 }, "geometry": { "type": "Point", "coordinates": [ 14.533333333333333, 35.833333333333336 ] } },
{ "type": "Feature", "properties": { "Country": "Maldives", "Function": "1--45---", "LOCODE": "MVMLE", "Name": "Male", "NameWoDiac": "Male", "Status": "AI", "outflows": 224938.42858000004 }, "geometry": { "type": "Point", "coordinates": [ 73.5, 4.166666666666667 ] } },
{ "type": "Feature", "properties": { "Country": "Malaysia", "Function": "1--4----", "LOCODE": "MYPEN", "Name": "Penang (Georgetown)", "NameWoDiac": "Penang (Georgetown)", "Status": "AI", "outflows": 3938506.0 }, "geometry": { "type": "Point", "coordinates": [ 100.316666666666663, 5.416666666666667 ] } },
{ "type": "Feature", "properties": { "Country": "Malaysia", "Function": "123-5---", "LOCODE": "MYPKG", "Name": "Port Klang (Pelabuhan Klang)", "NameWoDiac": "Port Klang (Pelabuhan Klang)", "Status": "RL", "outflows": 58866748.817210026 }, "geometry": { "type": "Point", "coordinates": [ 101.4, 3.0 ] } },
{ "type": "Feature", "properties": { "Country": "Malaysia", "Function": "123-----", "LOCODE": "MYTPP", "Name": "Tanjung Pelepas", "NameWoDiac": "Tanjung Pelepas", "Status": "RL", "outflows": 36861511.888539977 }, "geometry": { "type": "Point", "coordinates": [ 103.55, 1.366666666666667 ] } },
{ "type": "Feature", "properties": { "Country": "Namibia", "Function": "1--4----", "LOCODE": "NALUD", "Name": "Lüderitz", "NameWoDiac": "Luderitz", "Status": "AI", "outflows": 43992.0 }, "geometry": { "type": "Point", "coordinates": [ 15.166666666666666, -26.65 ] } },
{ "type": "Feature", "properties": { "Country": "Nigeria", "Function": "--3-----", "LOCODE": "NGLKK", "Name": "Lekki", "NameWoDiac": "Lekki", "Status": "RL", "outflows": 23036.0 }, "geometry": { "type": "Point", "coordinates": [ 3.1, 6.45 ] } },
{ "type": "Feature", "properties": { "Country": "Nigeria", "Function": "1-3-----", "LOCODE": "NGONN", "Name": "Onne", "NameWoDiac": "Onne", "Status": "RL", "outflows": 1341939.73318 }, "geometry": { "type": "Point", "coordinates": [ 7.15, 4.716666666666667 ] } },
{ "type": "Feature", "properties": { "Country": "New Zealand", "Function": "12345---", "LOCODE": "NZAKL", "Name": "Auckland", "NameWoDiac": "Auckland", "Status": "AC", "outflows": 3839723.3548399992 }, "geometry": { "type": "Point", "coordinates": [ 174.8, -36.833333333333336 ] } },
{ "type": "Feature", "properties": { "Country": "New Zealand", "Function": "123-----", "LOCODE": "NZBLU", "Name": "Bluff", "NameWoDiac": "Bluff", "Status": "AC", "outflows": 537012.66663 }, "geometry": { "type": "Point", "coordinates": [ 168.316666666666663, -46.6 ] } },
{ "type": "Feature", "properties": { "Country": "New Zealand", "Function": "1-3-----", "LOCODE": "NZLYT", "Name": "Lyttelton", "NameWoDiac": "Lyttelton", "Status": "AC", "outflows": 2992885.6903999997 }, "geometry": { "type": "Point", "coordinates": [ 172.716666666666669, -43.6 ] } },
{ "type": "Feature", "properties": { "Country": "New Zealand", "Function": "1-3-----", "LOCODE": "NZMAP", "Name": "Marsden Point", "NameWoDiac": "Marsden Point", "Status": "AC", "outflows": 722904.00003 }, "geometry": { "type": "Point", "coordinates": [ 174.5, -35.833333333333336 ] } },
{ "type": "Feature", "properties": { "Country": "New Zealand", "Function": "1--4----", "LOCODE": "NZNPE", "Name": "Napier", "NameWoDiac": "Napier", "Status": "AC", "outflows": 3423163.5692899991 }, "geometry": { "type": "Point", "coordinates": [ 176.9, -39.466666666666669 ] } },
{ "type": "Feature", "properties": { "Country": "New Zealand", "Function": "1-34----", "LOCODE": "NZNSN", "Name": "Nelson", "NameWoDiac": "Nelson", "Status": "AC", "outflows": 1229461.9998700004 }, "geometry": { "type": "Point", "coordinates": [ 173.26666666666668, -41.25 ] } },
{ "type": "Feature", "properties": { "Country": "New Zealand", "Function": "1-------", "LOCODE": "NZPOE", "Name": "Port Chalmers", "NameWoDiac": "Port Chalmers", "Status": "AC", "outflows": 1736542.9262700006 }, "geometry": { "type": "Point", "coordinates": [ 170.6, -45.81666666666667 ] } },
{ "type": "Feature", "properties": { "Country": "New Zealand", "Function": "1234----", "LOCODE": "NZTRG", "Name": "Tauranga", "NameWoDiac": "Tauranga", "Status": "AI", "outflows": 6568750.5691900002 }, "geometry": { "type": "Point", "coordinates": [ 176.166666666666657, -37.68333333333333 ] } },
{ "type": "Feature", "properties": { "Country": "New Zealand", "Function": "1234----", "LOCODE": "NZTIU", "Name": "Timaru", "NameWoDiac": "Timaru", "Status": "AC", "outflows": 1399570.2597300003 }, "geometry": { "type": "Point", "coordinates": [ 171.25, -44.383333333333333 ] } },
{ "type": "Feature", "properties": { "Country": "New Zealand", "Function": "1234----", "LOCODE": "NZWLG", "Name": "Wellington", "NameWoDiac": "Wellington", "Status": "AC", "outflows": 1605903.3093099999 }, "geometry": { "type": "Point", "coordinates": [ 174.783333333333331, -41.266666666666666 ] } },
{ "type": "Feature", "properties": { "Country": "Panama", "Function": "1-345---", "LOCODE": "PAONX", "Name": "Colón", "NameWoDiac": "Colon", "Status": "AI", "outflows": 5425996.6880400013 }, "geometry": { "type": "Point", "coordinates": [ -79.86666666666666, 9.35 ] } },
{ "type": "Feature", "properties": { "Country": "Panama", "Function": "1-------", "LOCODE": "PACTB", "Name": "Cristóbal", "NameWoDiac": "Cristobal", "Status": "AI", "outflows": 7696418.2510899995 }, "geometry": { "type": "Point", "coordinates": [ -79.9, 9.35 ] } },
{ "type": "Feature", "properties": { "Country": "Panama", "Function": "1-345---", "LOCODE": "PAPTY", "Name": "Panamá, Ciudad de", "NameWoDiac": "Panama, Ciudad de", "Status": "AI", "outflows": 13494.0 }, "geometry": { "type": "Point", "coordinates": [ -79.533333333333331, 8.966666666666667 ] } },
{ "type": "Feature", "properties": { "Country": "Panama", "Function": "1-------", "LOCODE": "PAROD", "Name": "Rodman", "NameWoDiac": "Rodman", "Status": "RL", "outflows": 4784764.0453200005 }, "geometry": { "type": "Point", "coordinates": [ -79.566666666666663, 8.95 ] } },
{ "type": "Feature", "properties": { "Country": "Papua New Guinea", "Function": "1--4----", "LOCODE": "PGMAG", "Name": "Madang", "NameWoDiac": "Madang", "Status": "AI", "outflows": 168130.0 }, "geometry": { "type": "Point", "coordinates": [ 145.783333333333331, -5.216666666666667 ] } },
{ "type": "Feature", "properties": { "Country": "Papua New Guinea", "Function": "1-------", "LOCODE": "PGMTK", "Name": "Motukea Island", "NameWoDiac": "Motukea Island", "Status": "RL", "outflows": 301007.5 }, "geometry": { "type": "Point", "coordinates": [ 147.1, -9.433333333333334 ] } },
{ "type": "Feature", "properties": { "Country": "Philippines", "Function": "1-3--6--", "LOCODE": "PHBTG", "Name": "Batangas\/Luzon", "NameWoDiac": "Batangas\/Luzon", "Status": "AI", "outflows": 1811559.5 }, "geometry": { "type": "Point", "coordinates": [ 121.05, 13.75 ] } },
{ "type": "Feature", "properties": { "Country": "Philippines", "Function": "1-34----", "LOCODE": "PHGES", "Name": "General Santos", "NameWoDiac": "General Santos", "Status": "AI", "outflows": 925870.83340999996 }, "geometry": { "type": "Point", "coordinates": [ 125.15, 6.116666666666666 ] } },
{ "type": "Feature", "properties": { "Country": "Philippines", "Function": "1-3-----", "LOCODE": "PHTGO", "Name": "Tagoloan", "NameWoDiac": "Tagoloan", "Status": "RL", "outflows": 12150.0 }, "geometry": { "type": "Point", "coordinates": [ 124.75, 8.533333333333333 ] } },
{ "type": "Feature", "properties": { "Country": "Poland", "Function": "123-----", "LOCODE": "PLGDY", "Name": "Gdynia", "NameWoDiac": "Gdynia", "Status": "RL", "outflows": 1377819.1666200003 }, "geometry": { "type": "Point", "coordinates": [ 18.55, 54.5 ] } },
{ "type": "Feature", "properties": { "Country": "Poland", "Function": "123-----", "LOCODE": "PLSWI", "Name": "Swinoujscie", "NameWoDiac": "Swinoujscie", "Status": "RL", "outflows": 16263.0 }, "geometry": { "type": "Point", "coordinates": [ 14.25, 53.9 ] } },
{ "type": "Feature", "properties": { "Country": "Portugal", "Function": "1-3-----", "LOCODE": "PTCNL", "Name": "Caniçal", "NameWoDiac": "Canical", "Status": "RL", "outflows": 70018.0 }, "geometry": { "type": "Point", "coordinates": [ -16.733333333333334, 32.733333333333334 ] } },
{ "type": "Feature", "properties": { "Country": "Portugal", "Function": "123-----", "LOCODE": "PTFDF", "Name": "Figueira da Foz", "NameWoDiac": "Figueira da Foz", "Status": "AI", "outflows": 26754.0 }, "geometry": { "type": "Point", "coordinates": [ -8.866666666666667, 40.15 ] } },
{ "type": "Feature", "properties": { "Country": "Portugal", "Function": "1-34----", "LOCODE": "PTHOR", "Name": "Horta", "NameWoDiac": "Horta", "Status": "AI", "outflows": 32292.0 }, "geometry": { "type": "Point", "coordinates": [ -28.633333333333333, 38.533333333333331 ] } },
{ "type": "Feature", "properties": { "Country": "Portugal", "Function": "123-----", "LOCODE": "PTLEI", "Name": "Leixões", "NameWoDiac": "Leixoes", "Status": "AI", "outflows": 1619530.783304 }, "geometry": { "type": "Point", "coordinates": [ -8.683333333333334, 41.18333333333333 ] } },
{ "type": "Feature", "properties": { "Country": "Portugal", "Function": "12345---", "LOCODE": "PTLIS", "Name": "Lisboa", "NameWoDiac": "Lisboa", "Status": "AI", "outflows": 1373631.1667299997 }, "geometry": { "type": "Point", "coordinates": [ -9.133333333333333, 38.716666666666669 ] } },
{ "type": "Feature", "properties": { "Country": "Portugal", "Function": "--3-----", "LOCODE": "PTPIC", "Name": "Pico", "NameWoDiac": "Pico", "Status": "RL", "outflows": 23192.0 }, "geometry": { "type": "Point", "coordinates": [ -8.416666666666666, 41.68333333333333 ] } },
{ "type": "Feature", "properties": { "Country": "Portugal", "Function": "1-345---", "LOCODE": "PTPDL", "Name": "Ponta Delgada", "NameWoDiac": "Ponta Delgada", "Status": "AI", "outflows": 109096.0 }, "geometry": { "type": "Point", "coordinates": [ -25.666666666666668, 37.733333333333334 ] } },
{ "type": "Feature", "properties": { "Country": "Portugal", "Function": "1--4---B", "LOCODE": "PTPXO", "Name": "Porto Santo Island", "NameWoDiac": "Porto Santo Island", "Status": "AI", "outflows": 28236.0 }, "geometry": { "type": "Point", "coordinates": [ -16.333333333333332, 33.06666666666667 ] } },
{ "type": "Feature", "properties": { "Country": "Portugal", "Function": "1-3-----", "LOCODE": "PTPRG", "Name": "Praia da Graciosa", "NameWoDiac": "Praia da Graciosa", "Status": "AI", "outflows": 19500.0 }, "geometry": { "type": "Point", "coordinates": [ -27.966666666666665, 39.05 ] } },
{ "type": "Feature", "properties": { "Country": "Portugal", "Function": "1-3-----", "LOCODE": "PTPRV", "Name": "Praia da Vitória", "NameWoDiac": "Praia da Vitoria", "Status": "AI", "outflows": 109096.0 }, "geometry": { "type": "Point", "coordinates": [ -27.066666666666666, 38.733333333333334 ] } },
{ "type": "Feature", "properties": { "Country": "Portugal", "Function": "1-3-----", "LOCODE": "PTSCF", "Name": "Santa Cruz das Flores", "NameWoDiac": "Santa Cruz das Flores", "Status": "RL", "outflows": 16146.0 }, "geometry": { "type": "Point", "coordinates": [ -31.116666666666667, 39.45 ] } },
{ "type": "Feature", "properties": { "Country": "Portugal", "Function": "123-----", "LOCODE": "PTSET", "Name": "Setúbal", "NameWoDiac": "Setubal", "Status": "AI", "outflows": 443319.5 }, "geometry": { "type": "Point", "coordinates": [ -8.9, 38.533333333333331 ] } },
{ "type": "Feature", "properties": { "Country": "Portugal", "Function": "1234----", "LOCODE": "PTSIE", "Name": "Sines", "NameWoDiac": "Sines", "Status": "AI", "outflows": 11424189.365200002 }, "geometry": { "type": "Point", "coordinates": [ -8.866666666666667, 37.95 ] } },
{ "type": "Feature", "properties": { "Country": "Portugal", "Function": "1-3-----", "LOCODE": "PTVEL", "Name": "Velas", "NameWoDiac": "Velas", "Status": "AI", "outflows": 47190.0 }, "geometry": { "type": "Point", "coordinates": [ -28.216666666666665, 38.68333333333333 ] } },
{ "type": "Feature", "properties": { "Country": "Portugal", "Function": "1-3-----", "LOCODE": "PTVDP", "Name": "Vila do Porto", "NameWoDiac": "Vila do Porto", "Status": "RL", "outflows": 13468.0 }, "geometry": { "type": "Point", "coordinates": [ -25.15, 36.93333333333333 ] } },
{ "type": "Feature", "properties": { "Country": "Qatar", "Function": "1-------", "LOCODE": "QAHMD", "Name": "BGN\/PCGN1956 - HAMAD", "NameWoDiac": "BGN\/PCGN1956 - HAMAD", "Status": "RL", "outflows": 11570563.360890001 }, "geometry": { "type": "Point", "coordinates": [ 51.616666666666667, 25.0 ] } },
{ "type": "Feature", "properties": { "Country": "Qatar", "Function": "1----6--", "LOCODE": "QAMES", "Name": "Mesaieed", "NameWoDiac": "Mesaieed", "Status": "RQ", "outflows": 87230.0 }, "geometry": { "type": "Point", "coordinates": [ 51.916666666666664, 25.633333333333333 ] } },
{ "type": "Feature", "properties": { "Country": "Romania", "Function": "1234-6--", "LOCODE": "ROCND", "Name": "Constanta", "NameWoDiac": "Constanta", "Status": "AI", "outflows": 4202750.0668100007 }, "geometry": { "type": "Point", "coordinates": [ 28.65, 44.18333333333333 ] } },
{ "type": "Feature", "properties": { "Country": "Russian Federation", "Function": "123-----", "LOCODE": "RUBRK", "Name": "Lomonosov", "NameWoDiac": "Lomonosov", "Status": "RL", "outflows": 172926.0 }, "geometry": { "type": "Point", "coordinates": [ 29.733333333333334, 59.9 ] } },
{ "type": "Feature", "properties": { "Country": "Russian Federation", "Function": "123--6--", "LOCODE": "RUNVS", "Name": "Novorossiysk", "NameWoDiac": "Novorossiysk", "Status": "RL", "outflows": 2856095.6668099994 }, "geometry": { "type": "Point", "coordinates": [ 37.766666666666666, 44.716666666666669 ] } },
{ "type": "Feature", "properties": { "Country": "Russian Federation", "Function": "12345---", "LOCODE": "RULED", "Name": "Saint Petersburg (ex Leningrad)", "NameWoDiac": "Saint Petersburg (ex Leningrad)", "Status": "AI", "outflows": 2197863.9046789999 }, "geometry": { "type": "Point", "coordinates": [ 30.25, 59.883333333333333 ] } },
{ "type": "Feature", "properties": { "Country": "Russian Federation", "Function": "123-----", "LOCODE": "RUULU", "Name": "Ust'-Luga", "NameWoDiac": "Ust'-Luga", "Status": "RL", "outflows": 217892.99998 }, "geometry": { "type": "Point", "coordinates": [ 28.316666666666666, 59.666666666666664 ] } },
{ "type": "Feature", "properties": { "Country": "Russian Federation", "Function": "1-------", "LOCODE": "RUVYP", "Name": "Vostochnyy Port", "NameWoDiac": "Vostochnyy Port", "Status": "RL", "outflows": 694044.00000000012 }, "geometry": { "type": "Point", "coordinates": [ 133.05, 42.766666666666666 ] } },
{ "type": "Feature", "properties": { "Country": "Russian Federation", "Function": "1-------", "LOCODE": "RUZAR", "Name": "Zarubino", "NameWoDiac": "Zarubino", "Status": "RL", "outflows": 8476.0 }, "geometry": { "type": "Point", "coordinates": [ 131.083333333333343, 42.616666666666667 ] } },
{ "type": "Feature", "properties": { "Country": "Saudi Arabia", "Function": "12345---", "LOCODE": "SADMM", "Name": "Ad Dammam", "NameWoDiac": "Ad Dammam", "Status": "RL", "outflows": 11255729.646892 }, "geometry": { "type": "Point", "coordinates": [ 50.1, 26.416666666666668 ] } },
{ "type": "Feature", "properties": { "Country": "Saudi Arabia", "Function": "1--45---", "LOCODE": "SAJED", "Name": "Jeddah", "NameWoDiac": "Jeddah", "Status": "AI", "outflows": 28479677.911780011 }, "geometry": { "type": "Point", "coordinates": [ 39.166666666666664, 21.533333333333335 ] } },
{ "type": "Feature", "properties": { "Country": "Saudi Arabia", "Function": "1-3-----", "LOCODE": "SAKAC", "Name": "King Abdullah City", "NameWoDiac": "King Abdullah City", "Status": "RQ", "outflows": 13582128.147299998 }, "geometry": { "type": "Point", "coordinates": [ 39.083333333333336, 22.4 ] } },
{ "type": "Feature", "properties": { "Country": "Saudi Arabia", "Function": "1-34----", "LOCODE": "SAYNB", "Name": "Yanbu al-Bahr", "NameWoDiac": "Yanbu al-Bahr", "Status": "AI", "outflows": 49257.0 }, "geometry": { "type": "Point", "coordinates": [ 38.033333333333331, 24.083333333333332 ] } },
{ "type": "Feature", "properties": { "Country": "Thailand", "Function": "12345---", "LOCODE": "THBKK", "Name": "Bangkok", "NameWoDiac": "Bangkok", "Status": "AI", "outflows": 4526246.8335100003 }, "geometry": { "type": "Point", "coordinates": [ 100.516666666666666, 13.75 ] } },
{ "type": "Feature", "properties": { "Country": "Thailand", "Function": "1-3-----", "LOCODE": "THLCH", "Name": "Laem Chabang", "NameWoDiac": "Laem Chabang", "Status": "RL", "outflows": 21757591.196550008 }, "geometry": { "type": "Point", "coordinates": [ 100.88333333333334, 13.083333333333334 ] } },
{ "type": "Feature", "properties": { "Country": "Thailand", "Function": "---4----", "LOCODE": "THHKT", "Name": "Phuket International Apt", "NameWoDiac": "Phuket International Apt", "Status": "AA", "outflows": 44898.75 }, "geometry": { "type": "Point", "coordinates": [ 98.316666666666663, 8.116666666666667 ] } },
{ "type": "Feature", "properties": { "Country": "Thailand", "Function": "1-3-----", "LOCODE": "THSCS", "Name": "Sahathai Coastal Seaport", "NameWoDiac": "Sahathai Coastal Seaport", "Status": "RQ", "outflows": 91563.33335 }, "geometry": { "type": "Point", "coordinates": [ 100.533333333333331, 13.65 ] } },
{ "type": "Feature", "properties": { "Country": "Timor-Leste", "Function": "1-34----", "LOCODE": "TLDIL", "Name": "Dili", "NameWoDiac": "Dili", "Status": "RL", "outflows": 34187.75 }, "geometry": { "type": "Point", "coordinates": [ 125.566666666666663, -8.55 ] } },
{ "type": "Feature", "properties": { "Country": "Tonga", "Function": "1--45---", "LOCODE": "TOTBU", "Name": "Nuku'alofa", "NameWoDiac": "Nuku'alofa", "Status": "AI", "outflows": 178599.5 }, "geometry": { "type": "Point", "coordinates": [ -175.2, -21.133333333333333 ] } },
{ "type": "Feature", "properties": { "Country": "Turkey", "Function": "--3-----", "LOCODE": "TRPAM", "Name": "Ambarli", "NameWoDiac": "Ambarli", "Status": "RL", "outflows": 14411413.266529994 }, "geometry": { "type": "Point", "coordinates": [ 39.166666666666664, 41.033333333333331 ] } },
{ "type": "Feature", "properties": { "Country": "Turkey", "Function": "1234----", "LOCODE": "TRAYT", "Name": "Antalya", "NameWoDiac": "Antalya", "Status": "AI", "outflows": 111670.0 }, "geometry": { "type": "Point", "coordinates": [ 30.6, 36.833333333333336 ] } },
{ "type": "Feature", "properties": { "Country": "Turkey", "Function": "1234----", "LOCODE": "TRBDM", "Name": "Bandirma", "NameWoDiac": "Bandirma", "Status": "AI", "outflows": 19968.0 }, "geometry": { "type": "Point", "coordinates": [ 27.966666666666665, 40.35 ] } },
{ "type": "Feature", "properties": { "Country": "Turkey", "Function": "--3-----", "LOCODE": "TRELI", "Name": "Eregli", "NameWoDiac": "Eregli", "Status": "RL", "outflows": 46215.0 }, "geometry": { "type": "Point", "coordinates": [ 34.05, 37.5 ] } },
{ "type": "Feature", "properties": { "Country": "Turkey", "Function": "123-----", "LOCODE": "TREYP", "Name": "Evyap Port \/Kocaeli", "NameWoDiac": "Evyap Port \/Kocaeli", "Status": "RL", "outflows": 2234864.6663000002 }, "geometry": { "type": "Point", "coordinates": [ 29.7, 40.766666666666666 ] } },
{ "type": "Feature", "properties": { "Country": "Turkey", "Function": "123-----", "LOCODE": "TRGEB", "Name": "Gebze", "NameWoDiac": "Gebze", "Status": "RL", "outflows": 3850254.1414999994 }, "geometry": { "type": "Point", "coordinates": [ 29.416666666666668, 40.783333333333331 ] } },
{ "type": "Feature", "properties": { "Country": "Turkey", "Function": "1-------", "LOCODE": "TRGEM", "Name": "Gemlik", "NameWoDiac": "Gemlik", "Status": "RL", "outflows": 5852461.2414100012 }, "geometry": { "type": "Point", "coordinates": [ 29.15, 40.416666666666664 ] } },
{ "type": "Feature", "properties": { "Country": "Turkey", "Function": "123-----", "LOCODE": "TRISK", "Name": "Iskenderun", "NameWoDiac": "Iskenderun", "Status": "RL", "outflows": 5577045.5832400005 }, "geometry": { "type": "Point", "coordinates": [ 36.166666666666664, 36.583333333333336 ] } },
{ "type": "Feature", "properties": { "Country": "Turkey", "Function": "12345---", "LOCODE": "TRIZM", "Name": "Izmir", "NameWoDiac": "Izmir", "Status": "AI", "outflows": 3559402.8750300007 }, "geometry": { "type": "Point", "coordinates": [ 27.15, 38.416666666666664 ] } },
{ "type": "Feature", "properties": { "Country": "Turkey", "Function": "123-----", "LOCODE": "TRIZT", "Name": "Izmit", "NameWoDiac": "Izmit", "Status": "RL", "outflows": 8619638.1665099971 }, "geometry": { "type": "Point", "coordinates": [ 29.95, 40.783333333333331 ] } },
{ "type": "Feature", "properties": { "Country": "Turkey", "Function": "123-----", "LOCODE": "TRKMX", "Name": "Kumport", "NameWoDiac": "Kumport", "Status": "RQ", "outflows": 829400.0 }, "geometry": { "type": "Point", "coordinates": [ 28.816666666666666, 40.95 ] } },
{ "type": "Feature", "properties": { "Country": "Turkey", "Function": "1-------", "LOCODE": "TRLMA", "Name": "Limas", "NameWoDiac": "Limas", "Status": "RQ", "outflows": 31720.0 }, "geometry": { "type": "Point", "coordinates": [ 26.916666666666668, 38.75 ] } },
{ "type": "Feature", "properties": { "Country": "Turkey", "Function": "123-----", "LOCODE": "TRMAD", "Name": "Mardas", "NameWoDiac": "Mardas", "Status": "RQ", "outflows": 103532.0 }, "geometry": { "type": "Point", "coordinates": [ 28.95, 41.016666666666666 ] } },
{ "type": "Feature", "properties": { "Country": "Turkey", "Function": "123-----", "LOCODE": "TRMER", "Name": "Mersin", "NameWoDiac": "Mersin", "Status": "RL", "outflows": 9929684.1327900011 }, "geometry": { "type": "Point", "coordinates": [ 34.633333333333333, 36.716666666666669 ] } },
{ "type": "Feature", "properties": { "Country": "Turkey", "Function": "1--4----", "LOCODE": "TRSSX", "Name": "Samsun", "NameWoDiac": "Samsun", "Status": "AI", "outflows": 105306.5 }, "geometry": { "type": "Point", "coordinates": [ 36.333333333333336, 41.283333333333331 ] } },
{ "type": "Feature", "properties": { "Country": "Turkey", "Function": "1234----", "LOCODE": "TRTEK", "Name": "Tekirdag", "NameWoDiac": "Tekirdag", "Status": "AI", "outflows": 4941615.3749799989 }, "geometry": { "type": "Point", "coordinates": [ 27.516666666666666, 40.966666666666669 ] } },
{ "type": "Feature", "properties": { "Country": "Turkey", "Function": "1-34----", "LOCODE": "TRTZX", "Name": "Trabzon", "NameWoDiac": "Trabzon", "Status": "AI", "outflows": 14760.0 }, "geometry": { "type": "Point", "coordinates": [ 39.733333333333334, 41.0 ] } },
{ "type": "Feature", "properties": { "Country": "Turkey", "Function": "1-3-----", "LOCODE": "TRYPO", "Name": "Yilport", "NameWoDiac": "Yilport", "Status": "RL", "outflows": 253751.33331 }, "geometry": { "type": "Point", "coordinates": [ 29.533333333333335, 40.766666666666666 ] } },
{ "type": "Feature", "properties": { "Country": "Taiwan, Province of China", "Function": "1--45---", "LOCODE": "TWTPE", "Name": "Taipei", "NameWoDiac": "Taipei", "Status": "AI", "outflows": 10793107.077210007 }, "geometry": { "type": "Point", "coordinates": [ 121.516666666666666, 25.033333333333335 ] } },
{ "type": "Feature", "properties": { "Country": "Tanzania, United Republic of", "Function": "12345---", "LOCODE": "TZDAR", "Name": "Dar es Salaam", "NameWoDiac": "Dar es Salaam", "Status": "AI", "outflows": 1404403.5674399997 }, "geometry": { "type": "Point", "coordinates": [ 39.283333333333331, -6.8 ] } },
{ "type": "Feature", "properties": { "Country": "Ukraine", "Function": "123-----", "LOCODE": "UAILK", "Name": "Chornomorsk", "NameWoDiac": "Chornomorsk", "Status": "AA", "outflows": 1398819.4999800001 }, "geometry": { "type": "Point", "coordinates": [ 30.666666666666668, 46.31666666666667 ] } },
{ "type": "Feature", "properties": { "Country": "Ukraine", "Function": "1234-6--", "LOCODE": "UAODS", "Name": "Odesa", "NameWoDiac": "Odesa", "Status": "AA", "outflows": 2843490.8999800007 }, "geometry": { "type": "Point", "coordinates": [ 30.75, 46.5 ] } },
{ "type": "Feature", "properties": { "Country": "Ukraine", "Function": "1-------", "LOCODE": "UAYUZ", "Name": "Yuzhnyi", "NameWoDiac": "Yuzhnyi", "Status": "AA", "outflows": 1861645.5 }, "geometry": { "type": "Point", "coordinates": [ 31.016666666666666, 46.6 ] } },
{ "type": "Feature", "properties": { "Country": "Uruguay", "Function": "--3-----", "LOCODE": "UYPTP", "Name": "Punta Pereyra", "NameWoDiac": "Punta Pereyra", "Status": "RQ", "outflows": 7800.0 }, "geometry": { "type": "Point", "coordinates": [ -58.06666666666667, -34.233333333333334 ] } },
{ "type": "Feature", "properties": { "Country": "Venezuela, Bolivarian Republic of", "Function": "1--4----", "LOCODE": "VEPLA", "Name": "Palúa", "NameWoDiac": "Palua", "Status": "AI", "outflows": 15540.0 }, "geometry": { "type": "Point", "coordinates": [ -62.666666666666664, 8.35 ] } },
{ "type": "Feature", "properties": { "Country": "South Africa", "Function": "12345---", "LOCODE": "ZACPT", "Name": "Cape Town", "NameWoDiac": "Cape Town", "Status": "AF", "outflows": 4902763.6243000003 }, "geometry": { "type": "Point", "coordinates": [ 18.416666666666668, -33.916666666666664 ] } },
{ "type": "Feature", "properties": { "Country": "South Africa", "Function": "-----6--", "LOCODE": "ZAZBA", "Name": "Coega", "NameWoDiac": "Coega", "Status": "RL", "outflows": 3467734.6668099998 }, "geometry": { "type": "Point", "coordinates": [ 25.666666666666668, -33.766666666666666 ] } },
{ "type": "Feature", "properties": { "Country": "South Africa", "Function": "12345---", "LOCODE": "ZADUR", "Name": "Durban", "NameWoDiac": "Durban", "Status": "AI", "outflows": 8754191.1218599975 }, "geometry": { "type": "Point", "coordinates": [ 31.016666666666666, -29.85 ] } },
{ "type": "Feature", "properties": { "Country": "United Arab Emirates", "Function": "1-3-----", "LOCODE": "AEAJM", "Name": "Ajman", "NameWoDiac": "Ajman", "Status": "RL", "outflows": 73567.0 }, "geometry": { "type": "Point", "coordinates": [ 55.47878, 25.40177 ] } },
{ "type": "Feature", "properties": { "Country": "United Arab Emirates", "Function": "1-------", "LOCODE": "AEJEA", "Name": "Jebel Ali", "NameWoDiac": "Jebel Ali", "Status": "QQ", "outflows": 44524119.850148 }, "geometry": { "type": "Point", "coordinates": [ 55.10811, 25.00255 ] } },
{ "type": "Feature", "properties": { "Country": "Albania", "Function": "1-------", "LOCODE": "ALDRZ", "Name": "Durrës", "NameWoDiac": "Durres", "Status": "RL", "outflows": 134307.0 }, "geometry": { "type": "Point", "coordinates": [ 19.45469, 41.32355 ] } },
{ "type": "Feature", "properties": { "Country": "Albania", "Function": "1-------", "LOCODE": "ALDRZ", "Name": "Durrës", "NameWoDiac": "Durres", "Status": "RL", "outflows": 134307.0 }, "geometry": { "type": "Point", "coordinates": [ 19.45469, 41.32355 ] } },
{ "type": "Feature", "properties": { "Country": "Angola", "Function": "1--4----", "LOCODE": "AOCAB", "Name": "Cabinda", "NameWoDiac": "Cabinda", "Status": "AI", "outflows": 2673.25 }, "geometry": { "type": "Point", "coordinates": [ 12.2, -5.55 ] } },
{ "type": "Feature", "properties": { "Country": "Angola", "Function": "1---5---", "LOCODE": "AOLOB", "Name": "Lobito", "NameWoDiac": "Lobito", "Status": "RL", "outflows": 210369.4 }, "geometry": { "type": "Point", "coordinates": [ 13.53601, -12.3644 ] } },
{ "type": "Feature", "properties": { "Country": "Angola", "Function": "1--45---", "LOCODE": "AOLAD", "Name": "Luanda", "NameWoDiac": "Luanda", "Status": "AI", "outflows": 2439604.518850001 }, "geometry": { "type": "Point", "coordinates": [ 13.23432, -8.83682 ] } },
{ "type": "Feature", "properties": { "Country": "Angola", "Function": "0-------", "LOCODE": "AOMAL", "Name": "Malongo", "NameWoDiac": "Malongo", "Status": "RQ", "outflows": 8707.5 }, "geometry": { "type": "Point", "coordinates": [ 12.19802179783948, -5.396406481852449 ] } },
{ "type": "Feature", "properties": { "Country": "Angola", "Function": "1--4----", "LOCODE": "AOMSZ", "Name": "Namibe", "NameWoDiac": "Namibe", "Status": "AI", "outflows": 61242.5 }, "geometry": { "type": "Point", "coordinates": [ 12.15222, -15.19611 ] } },
{ "type": "Feature", "properties": { "Country": "Angola", "Function": "1--4----", "LOCODE": "AOSZA", "Name": "Soyo", "NameWoDiac": "Soyo", "Status": "AI", "outflows": 79583.4 }, "geometry": { "type": "Point", "coordinates": [ 12.36894, -6.1349 ] } },
{ "type": "Feature", "properties": { "Country": "Barbados", "Function": "1--45---", "LOCODE": "BBBGI", "Name": "Bridgetown", "NameWoDiac": "Bridgetown", "Status": "AI", "outflows": 687251.06668999989 }, "geometry": { "type": "Point", "coordinates": [ -59.62021, 13.10732 ] } },
{ "type": "Feature", "properties": { "Country": "Bangladesh", "Function": "1-------", "LOCODE": "BDMGL", "Name": "Mongla", "NameWoDiac": "Mongla", "Status": "RQ", "outflows": 65143.0 }, "geometry": { "type": "Point", "coordinates": [ 89.61095, 22.47223 ] } },
{ "type": "Feature", "properties": { "Country": "Bulgaria", "Function": "1-------", "LOCODE": "BGBOJ", "Name": "Burgas", "NameWoDiac": "Burgas", "Status": "AC", "outflows": 535001.99997999996 }, "geometry": { "type": "Point", "coordinates": [ 27.46781, 42.50606 ] } },
{ "type": "Feature", "properties": { "Country": "Bulgaria", "Function": "1--4----", "LOCODE": "BGVAR", "Name": "Varna", "NameWoDiac": "Varna", "Status": "AI", "outflows": 147810.0 }, "geometry": { "type": "Point", "coordinates": [ 27.91667, 43.21667 ] } },
{ "type": "Feature", "properties": { "Country": "Benin", "Function": "1--45---", "LOCODE": "BJCOO", "Name": "Cotonou", "NameWoDiac": "Cotonou", "Status": "AI", "outflows": 4812454.6643299991 }, "geometry": { "type": "Point", "coordinates": [ 2.41833, 6.36536 ] } },
{ "type": "Feature", "properties": { "Country": "Cook Islands", "Function": "1--45---", "LOCODE": "CKAIT", "Name": "Aitutaki", "NameWoDiac": "Aitutaki", "Status": "AI", "outflows": 40320.0 }, "geometry": { "type": "Point", "coordinates": [ -159.79293, -18.85195 ] } },
{ "type": "Feature", "properties": { "Country": "Cook Islands", "Function": "1--45---", "LOCODE": "CKRAR", "Name": "Rarotonga", "NameWoDiac": "Rarotonga", "Status": "AI", "outflows": 41157.0 }, "geometry": { "type": "Point", "coordinates": [ -159.77545, -21.2075 ] } },
{ "type": "Feature", "properties": { "Country": "Cameroon", "Function": "1--45---", "LOCODE": "CMDLA", "Name": "Douala", "NameWoDiac": "Douala", "Status": "AI", "outflows": 1089387.80006 }, "geometry": { "type": "Point", "coordinates": [ 9.70428, 4.04827 ] } },
{ "type": "Feature", "properties": { "Country": "Cameroon", "Function": "1--4----", "LOCODE": "CMKBI", "Name": "Kribi", "NameWoDiac": "Kribi", "Status": "AI", "outflows": 1338743.54556 }, "geometry": { "type": "Point", "coordinates": [ 9.90765, 2.93725 ] } },
{ "type": "Feature", "properties": { "Country": "Cuba", "Function": "---4----", "LOCODE": "CUMOA", "Name": "Moa", "NameWoDiac": "Moa", "Status": "AI", "outflows": 65431.8 }, "geometry": { "type": "Point", "coordinates": [ -74.95075, 20.65776 ] } },
{ "type": "Feature", "properties": { "Country": "Cuba", "Function": "1--4----", "LOCODE": "CUSCU", "Name": "Santiago de Cuba", "NameWoDiac": "Santiago de Cuba", "Status": "AI", "outflows": 63230.0 }, "geometry": { "type": "Point", "coordinates": [ -75.82667, 20.02083 ] } },
{ "type": "Feature", "properties": { "Country": "Cabo Verde", "Function": "0-------", "LOCODE": "CVPAL", "Name": "Palmeira", "NameWoDiac": "Palmeira", "Status": "RQ", "outflows": 13234.0 }, "geometry": { "type": "Point", "coordinates": [ -22.98348, 16.75754 ] } },
{ "type": "Feature", "properties": { "Country": "Cabo Verde", "Function": "1--4----", "LOCODE": "CVRAI", "Name": "Praia", "NameWoDiac": "Praia", "Status": "AI", "outflows": 114309.0 }, "geometry": { "type": "Point", "coordinates": [ -23.51254, 14.93152 ] } },
{ "type": "Feature", "properties": { "Country": "Cabo Verde", "Function": "0-------", "LOCODE": "CVSAR", "Name": "Sal Rei", "NameWoDiac": "Sal Rei", "Status": "RQ", "outflows": 25421.5 }, "geometry": { "type": "Point", "coordinates": [ -22.91722, 16.17611 ] } },
{ "type": "Feature", "properties": { "Country": "Djibouti", "Function": "1--45---", "LOCODE": "DJJIB", "Name": "Djibouti", "NameWoDiac": "Djibouti", "Status": "AI", "outflows": 4852561.0352500007 }, "geometry": { "type": "Point", "coordinates": [ 43.14503, 11.58901 ] } },
{ "type": "Feature", "properties": { "Country": "Dominica", "Function": "1-------", "LOCODE": "DMRSU", "Name": "Roseau", "NameWoDiac": "Roseau", "Status": "AI", "outflows": 370965.4 }, "geometry": { "type": "Point", "coordinates": [ -61.38808, 15.30174 ] } },
{ "type": "Feature", "properties": { "Country": "Dominican Republic", "Function": "1-------", "LOCODE": "DOBCC", "Name": "Boca Chica", "NameWoDiac": "Boca Chica", "Status": "AI", "outflows": 333493.3333 }, "geometry": { "type": "Point", "coordinates": [ -69.6, 18.45 ] } },
{ "type": "Feature", "properties": { "Country": "Dominican Republic", "Function": "1-------", "LOCODE": "DOPOP", "Name": "Puerto Plata", "NameWoDiac": "Puerto Plata", "Status": "AI", "outflows": 712651.3333000001 }, "geometry": { "type": "Point", "coordinates": [ -70.6884, 19.79344 ] } },
{ "type": "Feature", "properties": { "Country": "Algeria", "Function": "1-------", "LOCODE": "DZMOS", "Name": "Mostaganem", "NameWoDiac": "Mostaganem", "Status": "QQ", "outflows": 20553.75 }, "geometry": { "type": "Point", "coordinates": [ 0.08918, 35.93115 ] } },
{ "type": "Feature", "properties": { "Country": "Algeria", "Function": "1--4----", "LOCODE": "DZORN", "Name": "Oran", "NameWoDiac": "Oran", "Status": "AI", "outflows": 210402.15 }, "geometry": { "type": "Point", "coordinates": [ -0.63588, 35.69906 ] } },
{ "type": "Feature", "properties": { "Country": "Egypt", "Function": "1-------", "LOCODE": "EGEDK", "Name": "El Dekheila", "NameWoDiac": "El Dekheila", "Status": "RQ", "outflows": 265833.75 }, "geometry": { "type": "Point", "coordinates": [ 29.82126, 31.13133 ] } },
{ "type": "Feature", "properties": { "Country": "Egypt", "Function": "1--4----", "LOCODE": "EGPSD", "Name": "Port Said", "NameWoDiac": "Port Said", "Status": "AI", "outflows": 20587604.955879994 }, "geometry": { "type": "Point", "coordinates": [ 32.3019, 31.26531 ] } },
{ "type": "Feature", "properties": { "Country": "Gabon", "Function": "1--45---", "LOCODE": "GALBV", "Name": "Libreville", "NameWoDiac": "Libreville", "Status": "AI", "outflows": 414222.00002999994 }, "geometry": { "type": "Point", "coordinates": [ 9.45356, 0.39241 ] } },
{ "type": "Feature", "properties": { "Country": "Gabon", "Function": "1--45---", "LOCODE": "GAPOG", "Name": "Port Gentil", "NameWoDiac": "Port Gentil", "Status": "AI", "outflows": 148566.9 }, "geometry": { "type": "Point", "coordinates": [ 8.78151, -0.71933 ] } },
{ "type": "Feature", "properties": { "Country": "Grenada", "Function": "1-------", "LOCODE": "GDSTG", "Name": "Saint George's", "NameWoDiac": "Saint George's", "Status": "AI", "outflows": 454265.06669000001 }, "geometry": { "type": "Point", "coordinates": [ -61.75226, 12.05288 ] } },
{ "type": "Feature", "properties": { "Country": "Georgia", "Function": "1--4----", "LOCODE": "GEBUS", "Name": "Batumi", "NameWoDiac": "Batumi", "Status": "AI", "outflows": 176479.99998 }, "geometry": { "type": "Point", "coordinates": [ 41.63392, 41.64228 ] } },
{ "type": "Feature", "properties": { "Country": "Georgia", "Function": "1-------", "LOCODE": "GEPTI", "Name": "Poti", "NameWoDiac": "Poti", "Status": "QQ", "outflows": 241566.0 }, "geometry": { "type": "Point", "coordinates": [ 41.67384, 42.14272 ] } },
{ "type": "Feature", "properties": { "Country": "Ghana", "Function": "1--45---", "LOCODE": "GHTKD", "Name": "Takoradi", "NameWoDiac": "Takoradi", "Status": "AI", "outflows": 343811.4 }, "geometry": { "type": "Point", "coordinates": [ -1.76029, 4.89816 ] } },
{ "type": "Feature", "properties": { "Country": "Ghana", "Function": "1-------", "LOCODE": "GHTEM", "Name": "Tema", "NameWoDiac": "Tema", "Status": "QQ", "outflows": 7407893.3644899996 }, "geometry": { "type": "Point", "coordinates": [ -0.01657, 5.6698 ] } },
{ "type": "Feature", "properties": { "Country": "Gambia", "Function": "1--45---", "LOCODE": "GMBJL", "Name": "Banjul", "NameWoDiac": "Banjul", "Status": "AI", "outflows": 184275.0 }, "geometry": { "type": "Point", "coordinates": [ -16.57803, 13.45274 ] } },
{ "type": "Feature", "properties": { "Country": "Guinea", "Function": "1--45---", "LOCODE": "GNCKY", "Name": "Conakry", "NameWoDiac": "Conakry", "Status": "AI", "outflows": 676607.90476000018 }, "geometry": { "type": "Point", "coordinates": [ -13.67729, 9.53795 ] } },
{ "type": "Feature", "properties": { "Country": "Equatorial Guinea", "Function": "1--45---", "LOCODE": "GQBSG", "Name": "Bata", "NameWoDiac": "Bata", "Status": "RQ", "outflows": 454067.0 }, "geometry": { "type": "Point", "coordinates": [ 9.76582, 1.86391 ] } },
{ "type": "Feature", "properties": { "Country": "Equatorial Guinea", "Function": "1--4----", "LOCODE": "GQSSG", "Name": "Malabo", "NameWoDiac": "Malabo", "Status": "AI", "outflows": 133795.9 }, "geometry": { "type": "Point", "coordinates": [ 8.78166, 3.75578 ] } },
{ "type": "Feature", "properties": { "Country": "Guyana", "Function": "1--45---", "LOCODE": "GYGEO", "Name": "Georgetown", "NameWoDiac": "Georgetown", "Status": "AI", "outflows": 428041.33332200005 }, "geometry": { "type": "Point", "coordinates": [ -58.15527, 6.80448 ] } },
{ "type": "Feature", "properties": { "Country": "Indonesia", "Function": "1--4----", "LOCODE": "IDBDJ", "Name": "Banjarmasin", "NameWoDiac": "Banjarmasin", "Status": "AI", "outflows": 17848.0 }, "geometry": { "type": "Point", "coordinates": [ 114.59075, -3.31987 ] } },
{ "type": "Feature", "properties": { "Country": "Indonesia", "Function": "1-------", "LOCODE": "IDBLW", "Name": "Belawan, Sumatra", "NameWoDiac": "Belawan, Sumatra", "Status": "QQ", "outflows": 494328.25003 }, "geometry": { "type": "Point", "coordinates": [ 98.6832, 3.7755 ] } },
{ "type": "Feature", "properties": { "Country": "Indonesia", "Function": "1-------", "LOCODE": "IDBIT", "Name": "Bitung, Sulawesi", "NameWoDiac": "Bitung, Sulawesi", "Status": "QQ", "outflows": 215154.58334000001 }, "geometry": { "type": "Point", "coordinates": [ 125.12824, 1.44059 ] } },
{ "type": "Feature", "properties": { "Country": "Indonesia", "Function": "1--4----", "LOCODE": "IDGTO", "Name": "Gorontalo, Sulawesi", "NameWoDiac": "Gorontalo, Sulawesi", "Status": "AI", "outflows": 42718.00001 }, "geometry": { "type": "Point", "coordinates": [ 123.3908, -0.8985 ] } },
{ "type": "Feature", "properties": { "Country": "Indonesia", "Function": "1--4----", "LOCODE": "IDKDI", "Name": "Kendari, Sulawesi", "NameWoDiac": "Kendari, Sulawesi", "Status": "AI", "outflows": 7988.5 }, "geometry": { "type": "Point", "coordinates": [ 122.51507, -3.9778 ] } },
{ "type": "Feature", "properties": { "Country": "Indonesia", "Function": "1--4----", "LOCODE": "IDLUW", "Name": "Luwuk", "NameWoDiac": "Luwuk", "Status": "AI", "outflows": 720.0 }, "geometry": { "type": "Point", "coordinates": [ 122.7875, -0.9516 ] } },
{ "type": "Feature", "properties": { "Country": "Indonesia", "Function": "1--45---", "LOCODE": "IDMES", "Name": "Medan, Sumatra", "NameWoDiac": "Medan, Sumatra", "Status": "AI", "outflows": 45136.0 }, "geometry": { "type": "Point", "coordinates": [ 98.66667, 3.58333 ] } },
{ "type": "Feature", "properties": { "Country": "Indonesia", "Function": "1--4----", "LOCODE": "IDPLM", "Name": "Palembang, Sumatra", "NameWoDiac": "Palembang, Sumatra", "Status": "AI", "outflows": 106646.75 }, "geometry": { "type": "Point", "coordinates": [ 104.7458, -2.91673 ] } },
{ "type": "Feature", "properties": { "Country": "Indonesia", "Function": "1-------", "LOCODE": "IDPNJ", "Name": "Panjang", "NameWoDiac": "Panjang", "Status": "RQ", "outflows": 1532041.4998899996 }, "geometry": { "type": "Point", "coordinates": [ 100.6199, 0.3087 ] } },
{ "type": "Feature", "properties": { "Country": "Indonesia", "Function": "1--45---", "LOCODE": "IDPNK", "Name": "Pontianak, Kalimantan", "NameWoDiac": "Pontianak, Kalimantan", "Status": "AI", "outflows": 35776.0 }, "geometry": { "type": "Point", "coordinates": [ 109.325, -0.03194 ] } },
{ "type": "Feature", "properties": { "Country": "Indonesia", "Function": "1--4----", "LOCODE": "IDSRI", "Name": "Samarinda, Kalimantan", "NameWoDiac": "Samarinda, Kalimantan", "Status": "AI", "outflows": 34320.0 }, "geometry": { "type": "Point", "coordinates": [ 117.14583, -0.49167 ] } },
{ "type": "Feature", "properties": { "Country": "Indonesia", "Function": "1--4----", "LOCODE": "IDSOQ", "Name": "Sorong", "NameWoDiac": "Sorong", "Status": "AI", "outflows": 125268.0 }, "geometry": { "type": "Point", "coordinates": [ 131.26104, -0.87956 ] } },
{ "type": "Feature", "properties": { "Country": "Indonesia", "Function": "1-------", "LOCODE": "IDTRK", "Name": "Tarakan, Kalimantan", "NameWoDiac": "Tarakan, Kalimantan", "Status": "QQ", "outflows": 5213.0 }, "geometry": { "type": "Point", "coordinates": [ 117.59152, 3.31332 ] } },
{ "type": "Feature", "properties": { "Country": "Indonesia", "Function": "1--4----", "LOCODE": "IDTLI", "Name": "Tolitoli", "NameWoDiac": "Tolitoli", "Status": "AI", "outflows": 3328.0 }, "geometry": { "type": "Point", "coordinates": [ 121.1679, 1.2718 ] } },
{ "type": "Feature", "properties": { "Country": "Iraq", "Function": "1-------", "LOCODE": "IQALF", "Name": "Abu Al Fulus", "NameWoDiac": "Abu Al Fulus", "Status": "RQ", "outflows": 14131.0 }, "geometry": { "type": "Point", "coordinates": [ 48.04246, 30.44783 ] } },
{ "type": "Feature", "properties": { "Country": "Iraq", "Function": "1-------", "LOCODE": "IQBSR", "Name": "Basra", "NameWoDiac": "Basra", "Status": "AI", "outflows": 7524.0 }, "geometry": { "type": "Point", "coordinates": [ 47.7804, 30.50852 ] } },
{ "type": "Feature", "properties": { "Country": "Italy", "Function": "1-------", "LOCODE": "ITMDC", "Name": "Marina di Carrara", "NameWoDiac": "Marina di Carrara", "Status": "AI", "outflows": 164793.0 }, "geometry": { "type": "Point", "coordinates": [ 10.04142, 44.03837 ] } },
{ "type": "Feature", "properties": { "Country": "Italy", "Function": "1-------", "LOCODE": "ITMNF", "Name": "Monfalcone", "NameWoDiac": "Monfalcone", "Status": "AI", "outflows": 23587.5 }, "geometry": { "type": "Point", "coordinates": [ 13.53292, 45.80463 ] } },
{ "type": "Feature", "properties": { "Country": "Italy", "Function": "1-------", "LOCODE": "ITPOZ", "Name": "Pozzuoli", "NameWoDiac": "Pozzuoli", "Status": "AI", "outflows": 42042.0 }, "geometry": { "type": "Point", "coordinates": [ 14.0952, 40.84394 ] } },
{ "type": "Feature", "properties": { "Country": "Italy", "Function": "1-------", "LOCODE": "ITRAN", "Name": "Ravenna", "NameWoDiac": "Ravenna", "Status": "AI", "outflows": 1216610.5 }, "geometry": { "type": "Point", "coordinates": [ 12.20121, 44.41344 ] } },
{ "type": "Feature", "properties": { "Country": "Italy", "Function": "1-3-----", "LOCODE": "ITSAL", "Name": "Salerno", "NameWoDiac": "Salerno", "Status": "AI", "outflows": 2238415.25 }, "geometry": { "type": "Point", "coordinates": [ 14.79328, 40.67545 ] } },
{ "type": "Feature", "properties": { "Country": "Italy", "Function": "1--4----", "LOCODE": "ITTRS", "Name": "Trieste", "NameWoDiac": "Trieste", "Status": "AI", "outflows": 4531748.0 }, "geometry": { "type": "Point", "coordinates": [ 13.77678, 45.64953 ] } },
{ "type": "Feature", "properties": { "Country": "Jamaica", "Function": "1--45---", "LOCODE": "JMKIN", "Name": "Kingston", "NameWoDiac": "Kingston", "Status": "AI", "outflows": 8626072.544909995 }, "geometry": { "type": "Point", "coordinates": [ -76.79358, 17.99702 ] } },
{ "type": "Feature", "properties": { "Country": "Jamaica", "Function": "1--4----", "LOCODE": "JMMBJ", "Name": "Montego Bay", "NameWoDiac": "Montego Bay", "Status": "AI", "outflows": 628021.3333000001 }, "geometry": { "type": "Point", "coordinates": [ -77.91883, 18.47116 ] } },
{ "type": "Feature", "properties": { "Country": "Kenya", "Function": "1--45---", "LOCODE": "KEMBA", "Name": "Mombasa", "NameWoDiac": "Mombasa", "Status": "AI", "outflows": 2290456.6388300001 }, "geometry": { "type": "Point", "coordinates": [ 39.66359, -4.05466 ] } },
{ "type": "Feature", "properties": { "Country": "Comoros", "Function": "1--45---", "LOCODE": "KMYVA", "Name": "Moroni", "NameWoDiac": "Moroni", "Status": "AI", "outflows": 131275.33335 }, "geometry": { "type": "Point", "coordinates": [ 43.25506, -11.70216 ] } },
{ "type": "Feature", "properties": { "Country": "Lebanon", "Function": "1--4----", "LOCODE": "LBKYE", "Name": "Tripoli", "NameWoDiac": "Tripoli", "Status": "AI", "outflows": 2038156.25 }, "geometry": { "type": "Point", "coordinates": [ 35.84415, 34.43352 ] } },
{ "type": "Feature", "properties": { "Country": "Lithuania", "Function": "1--4----", "LOCODE": "LTKLJ", "Name": "Klaipeda", "NameWoDiac": "Klaipeda", "Status": "AI", "outflows": 1242325.5 }, "geometry": { "type": "Point", "coordinates": [ 21.13912, 55.7068 ] } },
{ "type": "Feature", "properties": { "Country": "Latvia", "Function": "1--45---", "LOCODE": "LVRIX", "Name": "Riga", "NameWoDiac": "Riga", "Status": "AI", "outflows": 944970.0 }, "geometry": { "type": "Point", "coordinates": [ 24.10589, 56.946 ] } },
{ "type": "Feature", "properties": { "Country": "Libya", "Function": "1--45---", "LOCODE": "LYBEN", "Name": "Bingazi (Benghazi)", "NameWoDiac": "Bingazi (Benghazi)", "Status": "AI", "outflows": 296981.0 }, "geometry": { "type": "Point", "coordinates": [ 20.06859, 32.11486 ] } },
{ "type": "Feature", "properties": { "Country": "Libya", "Function": "1--4----", "LOCODE": "LYMRA", "Name": "Misurata", "NameWoDiac": "Misurata", "Status": "AI", "outflows": 757750.00001000008 }, "geometry": { "type": "Point", "coordinates": [ 15.09254, 32.37535 ] } },
{ "type": "Feature", "properties": { "Country": "Libya", "Function": "1--4----", "LOCODE": "LYTIP", "Name": "Tripoli", "NameWoDiac": "Tripoli", "Status": "AI", "outflows": 281045.0 }, "geometry": { "type": "Point", "coordinates": [ 13.18733, 32.88743 ] } },
{ "type": "Feature", "properties": { "Country": "Madagascar", "Function": "1--4----", "LOCODE": "MGDIE", "Name": "Antsiranana", "NameWoDiac": "Antsiranana", "Status": "AI", "outflows": 113468.0 }, "geometry": { "type": "Point", "coordinates": [ 49.29188, -12.31732 ] } },
{ "type": "Feature", "properties": { "Country": "Madagascar", "Function": "1--4----", "LOCODE": "MGMJN", "Name": "Majunga (Mahajanga)", "NameWoDiac": "Majunga (Mahajanga)", "Status": "AI", "outflows": 125324.0 }, "geometry": { "type": "Point", "coordinates": [ 46.31667, -15.71667 ] } },
{ "type": "Feature", "properties": { "Country": "Madagascar", "Function": "1--45---", "LOCODE": "MGTMM", "Name": "Tamatave (Toamasina)", "NameWoDiac": "Tamatave (Toamasina)", "Status": "AI", "outflows": 396084.0 }, "geometry": { "type": "Point", "coordinates": [ 49.40234, -18.1492 ] } },
{ "type": "Feature", "properties": { "Country": "Madagascar", "Function": "1--4----", "LOCODE": "MGTLE", "Name": "Tulear (Toliara)", "NameWoDiac": "Tulear (Toliara)", "Status": "AI", "outflows": 19864.0 }, "geometry": { "type": "Point", "coordinates": [ 43.66667, -23.35 ] } },
{ "type": "Feature", "properties": { "Country": "Myanmar", "Function": "1--45---", "LOCODE": "MMRGN", "Name": "Yangon", "NameWoDiac": "Yangon", "Status": "AI", "outflows": 937558.00004999992 }, "geometry": { "type": "Point", "coordinates": [ 96.15611, 16.80528 ] } },
{ "type": "Feature", "properties": { "Country": "Myanmar", "Function": "1--45---", "LOCODE": "MMRGN", "Name": "Yangon", "NameWoDiac": "Yangon", "Status": "AI", "outflows": 937558.00004999992 }, "geometry": { "type": "Point", "coordinates": [ 96.15611, 16.80528 ] } },
{ "type": "Feature", "properties": { "Country": "Mauritania", "Function": "1--4----", "LOCODE": "MRNDB", "Name": "Nouadhibou", "NameWoDiac": "Nouadhibou", "Status": "AI", "outflows": 197029.5 }, "geometry": { "type": "Point", "coordinates": [ -17.03842, 20.94188 ] } },
{ "type": "Feature", "properties": { "Country": "Mauritania", "Function": "1--45---", "LOCODE": "MRNKC", "Name": "Nouakchott", "NameWoDiac": "Nouakchott", "Status": "AI", "outflows": 334524.0 }, "geometry": { "type": "Point", "coordinates": [ -15.9785, 18.08581 ] } },
{ "type": "Feature", "properties": { "Country": "Malaysia", "Function": "1-------", "LOCODE": "MYBTU", "Name": "Bintulu, Sarawak", "NameWoDiac": "Bintulu, Sarawak", "Status": "AI", "outflows": 670234.5 }, "geometry": { "type": "Point", "coordinates": [ 113.03333, 3.16667 ] } },
{ "type": "Feature", "properties": { "Country": "Malaysia", "Function": "1-345---", "LOCODE": "MYBKI", "Name": "Kota Kinabalu, Sabah", "NameWoDiac": "Kota Kinabalu, Sabah", "Status": "AI", "outflows": 710049.1667 }, "geometry": { "type": "Point", "coordinates": [ 116.0724, 5.9749 ] } },
{ "type": "Feature", "properties": { "Country": "Malaysia", "Function": "1--45---", "LOCODE": "MYKCH", "Name": "Kuching, Sarawak", "NameWoDiac": "Kuching, Sarawak", "Status": "AI", "outflows": 276603.6 }, "geometry": { "type": "Point", "coordinates": [ 110.33333, 1.55 ] } },
{ "type": "Feature", "properties": { "Country": "Malaysia", "Function": "1--4----", "LOCODE": "MYLBU", "Name": "Labuan, Sabah", "NameWoDiac": "Labuan, Sabah", "Status": "AI", "outflows": 68835.0 }, "geometry": { "type": "Point", "coordinates": [ 115.26924, 5.28883 ] } },
{ "type": "Feature", "properties": { "Country": "Malaysia", "Function": "1--4----", "LOCODE": "MYMKZ", "Name": "Malacca", "NameWoDiac": "Malacca", "Status": "AI", "outflows": 2862.0 }, "geometry": { "type": "Point", "coordinates": [ 102.2405, 2.196 ] } },
{ "type": "Feature", "properties": { "Country": "Malaysia", "Function": "1-------", "LOCODE": "MYPGU", "Name": "Pasir Gudang, Johor", "NameWoDiac": "Pasir Gudang, Johor", "Status": "QQ", "outflows": 3893274.6667500003 }, "geometry": { "type": "Point", "coordinates": [ 103.878, 1.4726 ] } },
{ "type": "Feature", "properties": { "Country": "Malaysia", "Function": "1--4----", "LOCODE": "MYSDK", "Name": "Sandakan, Sabah", "NameWoDiac": "Sandakan, Sabah", "Status": "AI", "outflows": 18720.0 }, "geometry": { "type": "Point", "coordinates": [ 118.1179, 5.8402 ] } },
{ "type": "Feature", "properties": { "Country": "Malaysia", "Function": "1--4----", "LOCODE": "MYSBW", "Name": "Sibu, Sarawak", "NameWoDiac": "Sibu, Sarawak", "Status": "AI", "outflows": 2250.0 }, "geometry": { "type": "Point", "coordinates": [ 111.81667, 2.3 ] } },
{ "type": "Feature", "properties": { "Country": "Malaysia", "Function": "1--4----", "LOCODE": "MYTWU", "Name": "Tawau, Sabah", "NameWoDiac": "Tawau, Sabah", "Status": "AI", "outflows": 241236.6667 }, "geometry": { "type": "Point", "coordinates": [ 117.89115, 4.24482 ] } },
{ "type": "Feature", "properties": { "Country": "Mozambique", "Function": "1--45---", "LOCODE": "MZBEW", "Name": "Beira", "NameWoDiac": "Beira", "Status": "AI", "outflows": 862537.00003 }, "geometry": { "type": "Point", "coordinates": [ 34.83889, -19.84361 ] } },
{ "type": "Feature", "properties": { "Country": "Mozambique", "Function": "1--45---", "LOCODE": "MZMPM", "Name": "Maputo", "NameWoDiac": "Maputo", "Status": "AI", "outflows": 871116.20004999987 }, "geometry": { "type": "Point", "coordinates": [ 32.58322, -25.96553 ] } },
{ "type": "Feature", "properties": { "Country": "Mozambique", "Function": "1--4----", "LOCODE": "MZMNC", "Name": "Nacala", "NameWoDiac": "Nacala", "Status": "AI", "outflows": 668056.99998000008 }, "geometry": { "type": "Point", "coordinates": [ 40.68538, -14.56257 ] } },
{ "type": "Feature", "properties": { "Country": "Mozambique", "Function": "1--4----", "LOCODE": "MZUEL", "Name": "Quelimane", "NameWoDiac": "Quelimane", "Status": "AI", "outflows": 8034.0 }, "geometry": { "type": "Point", "coordinates": [ 36.88833, -17.87861 ] } },
{ "type": "Feature", "properties": { "Country": "Namibia", "Function": "1-------", "LOCODE": "NAWVB", "Name": "Walvis Bay", "NameWoDiac": "Walvis Bay", "Status": "QQ", "outflows": 2144542.8666100004 }, "geometry": { "type": "Point", "coordinates": [ 14.50528, -22.9575 ] } },
{ "type": "Feature", "properties": { "Country": "Nigeria", "Function": "1-------", "LOCODE": "NGAPP", "Name": "Apapa", "NameWoDiac": "Apapa", "Status": "QQ", "outflows": 1959193.7340199992 }, "geometry": { "type": "Point", "coordinates": [ 3.35901, 6.4488 ] } },
{ "type": "Feature", "properties": { "Country": "Nigeria", "Function": "1--4----", "LOCODE": "NGCBQ", "Name": "Calabar", "NameWoDiac": "Calabar", "Status": "AI", "outflows": 7150.0 }, "geometry": { "type": "Point", "coordinates": [ 8.32695, 4.95893 ] } },
{ "type": "Feature", "properties": { "Country": "Nigeria", "Function": "1--45---", "LOCODE": "NGLOS", "Name": "Lagos", "NameWoDiac": "Lagos", "Status": "AI", "outflows": 1767326.6668199997 }, "geometry": { "type": "Point", "coordinates": [ 3.39467, 6.45407 ] } },
{ "type": "Feature", "properties": { "Country": "Nigeria", "Function": "1--4----", "LOCODE": "NGPHC", "Name": "Port Harcourt", "NameWoDiac": "Port Harcourt", "Status": "AI", "outflows": 46634.9 }, "geometry": { "type": "Point", "coordinates": [ 7.0134, 4.77742 ] } },
{ "type": "Feature", "properties": { "Country": "Oman", "Function": "1--4----", "LOCODE": "OMSLL", "Name": "Salalah", "NameWoDiac": "Salalah", "Status": "AI", "outflows": 20488113.65606999 }, "geometry": { "type": "Point", "coordinates": [ 54.09237, 17.01505 ] } },
{ "type": "Feature", "properties": { "Country": "Oman", "Function": "1-------", "LOCODE": "OMSOH", "Name": "Sohar", "NameWoDiac": "Sohar", "Status": "QQ", "outflows": 5253518.9085 }, "geometry": { "type": "Point", "coordinates": [ 56.70937, 24.34745 ] } },
{ "type": "Feature", "properties": { "Country": "Panama", "Function": "1-------", "LOCODE": "PAPAM", "Name": "Almirante", "NameWoDiac": "Almirante", "Status": "AI", "outflows": 265850.0 }, "geometry": { "type": "Point", "coordinates": [ -82.4018, 9.30091 ] } },
{ "type": "Feature", "properties": { "Country": "Panama", "Function": "1-------", "LOCODE": "PABLB", "Name": "Balboa", "NameWoDiac": "Balboa", "Status": "AI", "outflows": 13017890.895410001 }, "geometry": { "type": "Point", "coordinates": [ -79.56672, 8.94814 ] } },
{ "type": "Feature", "properties": { "Country": "Panama", "Function": "--3-----", "LOCODE": "PACSO", "Name": "Coco Solo", "NameWoDiac": "Coco Solo", "Status": "RQ", "outflows": 340795.0 }, "geometry": { "type": "Point", "coordinates": [ -79.88168, 9.37091 ] } },
{ "type": "Feature", "properties": { "Country": "Panama", "Function": "123-----", "LOCODE": "PAMIT", "Name": "Manzanillo", "NameWoDiac": "Manzanillo", "Status": "AI", "outflows": 13509667.606659999 }, "geometry": { "type": "Point", "coordinates": [ -81.16667, 7.53667 ] } },
{ "type": "Feature", "properties": { "Country": "Peru", "Function": "1-------", "LOCODE": "PECLL", "Name": "Callao", "NameWoDiac": "Callao", "Status": "AI", "outflows": 15247664.791890001 }, "geometry": { "type": "Point", "coordinates": [ -77.11814, -12.05659 ] } },
{ "type": "Feature", "properties": { "Country": "Peru", "Function": "1--4----", "LOCODE": "PEILQ", "Name": "Ilo", "NameWoDiac": "Ilo", "Status": "AI", "outflows": 83616.0 }, "geometry": { "type": "Point", "coordinates": [ -71.34108, -17.63185 ] } },
{ "type": "Feature", "properties": { "Country": "Peru", "Function": "1--4----", "LOCODE": "PEIQT", "Name": "Iquitos", "NameWoDiac": "Iquitos", "Status": "AI", "outflows": 9675.0 }, "geometry": { "type": "Point", "coordinates": [ -73.25383, -3.74912 ] } },
{ "type": "Feature", "properties": { "Country": "Peru", "Function": "1-------", "LOCODE": "PEMRI", "Name": "Matarani", "NameWoDiac": "Matarani", "Status": "AI", "outflows": 98962.5 }, "geometry": { "type": "Point", "coordinates": [ -72.10563, -16.99639 ] } },
{ "type": "Feature", "properties": { "Country": "Peru", "Function": "1-------", "LOCODE": "PEPAI", "Name": "Paita", "NameWoDiac": "Paita", "Status": "AI", "outflows": 1763103.4120800004 }, "geometry": { "type": "Point", "coordinates": [ -81.11444, -5.08917 ] } },
{ "type": "Feature", "properties": { "Country": "Peru", "Function": "1--4----", "LOCODE": "PEPIO", "Name": "Pisco", "NameWoDiac": "Pisco", "Status": "AI", "outflows": 121628.0 }, "geometry": { "type": "Point", "coordinates": [ -76.20538, -13.71029 ] } },
{ "type": "Feature", "properties": { "Country": "Papua New Guinea", "Function": "1--4----", "LOCODE": "PGGUR", "Name": "Alotau", "NameWoDiac": "Alotau", "Status": "AI", "outflows": 15808.0 }, "geometry": { "type": "Point", "coordinates": [ 150.45742, -10.31509 ] } },
{ "type": "Feature", "properties": { "Country": "Papua New Guinea", "Function": "1--4----", "LOCODE": "PGBUA", "Name": "Buka", "NameWoDiac": "Buka", "Status": "AI", "outflows": 15808.0 }, "geometry": { "type": "Point", "coordinates": [ 154.67098, -5.43261 ] } },
{ "type": "Feature", "properties": { "Country": "Papua New Guinea", "Function": "1-------", "LOCODE": "PGKIM", "Name": "Kimbe", "NameWoDiac": "Kimbe", "Status": "QQ", "outflows": 99364.0 }, "geometry": { "type": "Point", "coordinates": [ 150.13766, -5.55085 ] } },
{ "type": "Feature", "properties": { "Country": "Papua New Guinea", "Function": "1--4----", "LOCODE": "PGLAE", "Name": "Lae", "NameWoDiac": "Lae", "Status": "AI", "outflows": 836183.91665300005 }, "geometry": { "type": "Point", "coordinates": [ 146.99611, -6.72333 ] } },
{ "type": "Feature", "properties": { "Country": "Papua New Guinea", "Function": "1--4----", "LOCODE": "PGPOM", "Name": "Port Moresby", "NameWoDiac": "Port Moresby", "Status": "AI", "outflows": 402247.08331199997 }, "geometry": { "type": "Point", "coordinates": [ 147.15089, -9.47723 ] } },
{ "type": "Feature", "properties": { "Country": "Papua New Guinea", "Function": "1--4----", "LOCODE": "PGRAB", "Name": "Rabaul", "NameWoDiac": "Rabaul", "Status": "AI", "outflows": 115172.0 }, "geometry": { "type": "Point", "coordinates": [ 152.16297, -4.20037 ] } },
{ "type": "Feature", "properties": { "Country": "Papua New Guinea", "Function": "1--4----", "LOCODE": "PGWWK", "Name": "Wewak", "NameWoDiac": "Wewak", "Status": "AI", "outflows": 43795.0 }, "geometry": { "type": "Point", "coordinates": [ 143.63229, -3.54964 ] } },
{ "type": "Feature", "properties": { "Country": "Philippines", "Function": "1--4----", "LOCODE": "PHBCD", "Name": "Bacolod, Negros", "NameWoDiac": "Bacolod, Negros", "Status": "AI", "outflows": 18806.0 }, "geometry": { "type": "Point", "coordinates": [ 122.95, 10.66667 ] } },
{ "type": "Feature", "properties": { "Country": "Philippines", "Function": "1--4----", "LOCODE": "PHCGY", "Name": "Cagayan de Oro, Mindanao", "NameWoDiac": "Cagayan de Oro, Mindanao", "Status": "AI", "outflows": 1437089.1667599997 }, "geometry": { "type": "Point", "coordinates": [ 124.64722, 8.48222 ] } },
{ "type": "Feature", "properties": { "Country": "Philippines", "Function": "1--4----", "LOCODE": "PHCEB", "Name": "Cebu", "NameWoDiac": "Cebu", "Status": "AI", "outflows": 1378464.0 }, "geometry": { "type": "Point", "coordinates": [ 123.89071, 10.31672 ] } },
{ "type": "Feature", "properties": { "Country": "Philippines", "Function": "1--4----", "LOCODE": "PHCBO", "Name": "Cotabato, Mindanao", "NameWoDiac": "Cotabato, Mindanao", "Status": "AI", "outflows": 29328.0 }, "geometry": { "type": "Point", "coordinates": [ 124.24639, 7.22361 ] } },
{ "type": "Feature", "properties": { "Country": "Philippines", "Function": "1--4----", "LOCODE": "PHDGT", "Name": "Dumaguete", "NameWoDiac": "Dumaguete", "Status": "AI", "outflows": 27546.0 }, "geometry": { "type": "Point", "coordinates": [ 123.30261, 9.30722 ] } },
{ "type": "Feature", "properties": { "Country": "Philippines", "Function": "1--45---", "LOCODE": "PHMNL", "Name": "Manila", "NameWoDiac": "Manila", "Status": "AI", "outflows": 7135131.1431800006 }, "geometry": { "type": "Point", "coordinates": [ 120.9822, 14.6042 ] } },
{ "type": "Feature", "properties": { "Country": "Philippines", "Function": "1--4----", "LOCODE": "PHOZC", "Name": "Ozamis, Mindanao", "NameWoDiac": "Ozamis, Mindanao", "Status": "AI", "outflows": 10976.0 }, "geometry": { "type": "Point", "coordinates": [ 123.8405, 8.1481 ] } },
{ "type": "Feature", "properties": { "Country": "Philippines", "Function": "1-3-----", "LOCODE": "PHPLC", "Name": "Polloc", "NameWoDiac": "Polloc", "Status": "RQ", "outflows": 11193.0 }, "geometry": { "type": "Point", "coordinates": [ 124.22088, 7.3534 ] } },
{ "type": "Feature", "properties": { "Country": "Philippines", "Function": "1--4----", "LOCODE": "PHPPS", "Name": "Puerto Princesa, Palawan", "NameWoDiac": "Puerto Princesa, Palawan", "Status": "AI", "outflows": 9100.0 }, "geometry": { "type": "Point", "coordinates": [ 118.73528, 9.73917 ] } },
{ "type": "Feature", "properties": { "Country": "Philippines", "Function": "1--4----", "LOCODE": "PHSFS", "Name": "Subic Bay", "NameWoDiac": "Subic Bay", "Status": "AI", "outflows": 1621178.0 }, "geometry": { "type": "Point", "coordinates": [ 120.27987, 14.78899 ] } },
{ "type": "Feature", "properties": { "Country": "Philippines", "Function": "1--4----", "LOCODE": "PHTAG", "Name": "Tagbilaran, Bohol", "NameWoDiac": "Tagbilaran, Bohol", "Status": "AI", "outflows": 4320.0 }, "geometry": { "type": "Point", "coordinates": [ 123.85219, 9.65556 ] } },
{ "type": "Feature", "properties": { "Country": "Philippines", "Function": "1--4----", "LOCODE": "PHZAM", "Name": "Zamboanga", "NameWoDiac": "Zamboanga", "Status": "AI", "outflows": 67509.0 }, "geometry": { "type": "Point", "coordinates": [ 122.07389, 6.91028 ] } },
{ "type": "Feature", "properties": { "Country": "Pakistan", "Function": "1-34----", "LOCODE": "PKGWD", "Name": "Gwadar", "NameWoDiac": "Gwadar", "Status": "AI", "outflows": 145535.0 }, "geometry": { "type": "Point", "coordinates": [ 62.32541, 25.12163 ] } },
{ "type": "Feature", "properties": { "Country": "Pakistan", "Function": "12345---", "LOCODE": "PKKHI", "Name": "Karachi", "NameWoDiac": "Karachi", "Status": "AI", "outflows": 11738106.441340001 }, "geometry": { "type": "Point", "coordinates": [ 67.0104, 24.8608 ] } },
{ "type": "Feature", "properties": { "Country": "Poland", "Function": "1--4----", "LOCODE": "PLGDN", "Name": "Gdansk", "NameWoDiac": "Gdansk", "Status": "AI", "outflows": 6373121.0499060033 }, "geometry": { "type": "Point", "coordinates": [ 18.64912, 54.35227 ] } },
{ "type": "Feature", "properties": { "Country": "Poland", "Function": "1--45---", "LOCODE": "PLSZZ", "Name": "Szczecin", "NameWoDiac": "Szczecin", "Status": "AI", "outflows": 101530.0 }, "geometry": { "type": "Point", "coordinates": [ 14.55302, 53.42894 ] } },
{ "type": "Feature", "properties": { "Country": "Russian Federation", "Function": "1--4----", "LOCODE": "RUARH", "Name": "Arkhangelsk", "NameWoDiac": "Arkhangelsk", "Status": "AI", "outflows": 390.0 }, "geometry": { "type": "Point", "coordinates": [ 40.5433, 64.5401 ] } },